,Place Name,Place ID,Latitude,Longitude,Rating,Types,Vicinity,Price Level,User Rating tot
0,Demsal restaurant (مطعم دمسال),ChIJUQWUJNkhB0ARtT2HZtPkIDc,36.2099079,44.0436644,4.3,"['restaurant', 'food', 'point_of_interest', 'establishment']","625V+XF7, Peshawa Qazi, Erbil",2,56
1,LasOlas Restaurant,ChIJZQ3-P9EfB0AR7qWY4bbmH9o,36.2371627,44.005009,4.8,"['restaurant', 'food', 'point_of_interest', 'establishment']","62P4+J4F, Erbil",2,9
2,مطعم وميظ Wamidth Restaurant,ChIJwVurB0IlB0AR8cqK1mz8Byc,36.1538229,44.0397514,3.5,"['restaurant', 'food', 'point_of_interest', 'establishment']","523Q+JRF, Erbil",2,2
3,Jazz Restaurant,ChIJNd7-znkiB0AR0HDkiQ_SgVM,36.2088315,43.9821238,4.2,"['restaurant', 'food', 'point_of_interest', 'establishment']",Erbil,2,151
4,Tablea+ Restaurant مطعم طبلية,ChIJGYUaLJkYB0AReH1vlVAZwQo,36.21860119999999,43.9876708,4.1,"['restaurant', 'food', 'point_of_interest', 'establishment']","100، Naqshbandi Street, Erbil",2,910
5,Taj Restaurant ڕێستورانتی تاج,ChIJVSa5VZ8YB0ARYrkaTpBo1pM,36.2174144,43.9852098,4.0,"['restaurant', 'food', 'point_of_interest', 'establishment']","6X8P+X32, Erbil",2,538
6,BIG LAND Restaurant,ChIJD5d3COMjB0ARERSfMYJ-Lzc,36.1999765,44.0222104,4.0,"['restaurant', 'food', 'point_of_interest', 'establishment']","60m street, opposite Van Royal Hotel Erbil Kurdistan",2,311
7,Sarakan restaurant چێشخانەی سەرەکان / مطعم سركان,ChIJZ6jC854jB0ARfhomX1Ye7GM,36.1894511,43.9624017,4.5,"['restaurant', 'food', 'point_of_interest', 'establishment']","5XQ6+QXJ, Erbil",2,23
8,چێشتخانەی حبیب / مطعم حبيب Habib Restaurant,ChIJI9jLSfYjB0ARDONXPhixYgY,36.1772279,44.0184319,4.2,"['restaurant', 'food', 'point_of_interest', 'establishment']","52G9+V9V, Erbil",2,125
9,Around The World Restaurant,ChIJPy_QZFQjB0ARNsztjC-YM6M,36.1713558,44.012586,4.1,"['restaurant', 'food', 'point_of_interest', 'establishment']","Tablo Mall, Erbil",2,213
10,Black Tap,ChIJ-5fQSqsjB0ARkt3WQcodQ-I,36.1961523,43.9665919,4.2,"['restaurant', 'food', 'point_of_interest', 'establishment']","VILLA, VITAL VILLAGE, NO: 40, Erbil",2,273
11,Hawler Restaurant,ChIJhUy9Z-MjB0ARJEqoZJzHnYo,36.1982481,44.0092242,0.0,"['restaurant', 'food', 'point_of_interest', 'establishment']","52X5+7MX, شارع ثلاثين، اربيل،،, Erbil",2,0
12,Tonight Restaurant,ChIJH243emE7B0ARHSsl-rHSfdg,36.1261747,44.0459721,4.0,"['restaurant', 'food', 'point_of_interest', 'establishment']",42GW+F99,2,68
13,Breeze restaurant and bar,ChIJs2_PzcMiB0AROxBGyMj0t3I,36.1873192,43.9734854,3.7,"['restaurant', 'bar', 'food', 'point_of_interest', 'establishment']","Gulan St, Erbil",2,14
14,Fishland Restaurant,ChIJXWO9-nE7B0ARa83WJb6EM7k,36.1490426,44.0145727,4.0,"['restaurant', 'food', 'point_of_interest', 'establishment']","42X7+HRW fishland-restaurant, Erbil",2,247
15,Fish basket Restaurant,ChIJzT_2J1gZB0ARqhiMBrQXZLA,36.2171409,43.984639,3.9,"['restaurant', 'food', 'point_of_interest', 'establishment']","6X8M+VV2, Peshawa Qazi, Erbil",2,13
16,Laventana,ChIJMxp7RQsZB0ARtMBerA_Y6uQ,36.2121946,43.9756817,3.9,"['restaurant', 'food', 'point_of_interest', 'establishment']","Peshawa Qazi, Erbil",2,765
17,India Gate Restaurant,ChIJmZhEizgfB0ARVsVi1jvsXSE,36.2295341,44.0040853,4.0,"['restaurant', 'food', 'point_of_interest', 'establishment']","Majdal St, Beside WOK Restaurant, Ainkawa Erbil Kurdistan",2,68
18,Muhammed media restaurant مطعم محمد ميديا,ChIJ3xsUSAIjB0ARrRilxN2dL2c,36.1707224,43.99989670000001,4.3,"['restaurant', 'food', 'point_of_interest', 'establishment']","Makhmur, Erbil",2,27
19,Guvenc Restaurant Erbil,ChIJ156levQZB0ARB2RnZ49Ptpc,36.2154454,43.98131679999999,4.4,"['restaurant', 'food', 'point_of_interest', 'establishment']","100M Road, Opposite Erbil International Airport",2,116
20,Top Fresh Kitchen Restaurant,ChIJNyTMvLYjB0ARZi6jmgMNzTY,36.1812905,44.05948,4.9,"['restaurant', 'food', 'point_of_interest', 'establishment']","دەرمانخانەی حەنان, جۆت سایدی منارە - بەرامبەر لەنگەی نوی - تەنیشت, سایدین المنارة - مقابل بالة الجديدة - بجانب صيديلية حنان, Erbil",2,24
21,KHK RESTAURANT,ChIJc-MYuL0jB0AR3QPSbyd1GbQ,36.1921759,43.9682188,4.3,"['restaurant', 'food', 'point_of_interest', 'establishment']",Gullan Erbil,2,20
22,Al dimashqi restaurant,ChIJraEJwg0fB0ARdfQEYEoQElg,36.2368959,43.9962504,4.4,"['restaurant', 'food', 'point_of_interest', 'establishment']","6XPW+QG7, Two side, Erbil",2,11
23,Daily Meal Restaurant,ChIJOfacZf0fB0ARyg3Thr3BqI8,36.2929017,44.0159968,4.9,"['restaurant', 'food', 'point_of_interest', 'establishment']","Baharka Rd, Erbil",2,9
24,Deja Vu Restaurant,ChIJBTvWKWUfB0ARcSmcQpEYUn8,36.2302732,44.0036153,4.2,"['restaurant', 'food', 'point_of_interest', 'establishment']","62J3+4C5, Ankawa Blvd, Erbil",2,347
25,"Bamboo Asian Restaurant, Erbil",ChIJoVVEvcojB0ARf4oXud1b2YE,36.2119639,43.99361630000001,4.1,"['restaurant', 'food', 'point_of_interest', 'establishment']","Entrance to World Trade Centre, Gulan Towers, Baxtiyari Road Erbil Kurdistan",2,267
26,hamdel restaurant,ChIJTwH-j6wZB0AR16a__u1r_-g,36.2139511,43.9866922,4.3,"['restaurant', 'food', 'point_of_interest', 'establishment']","6X7P+HMG, naz naz str, Erbil",2,29
27,Chrakhan restaurant,ChIJh1C6jREjB0ARDURVzq79InI,36.1776105,44.0123492,0.0,"['restaurant', 'food', 'point_of_interest', 'establishment']","52H6+3WG, Kirkuk road opposite chwar chra hotel, Erbil",2,0
28,Beroea Restaurant,ChIJR1UIo8sfB0ARM2PWjDVpVTE,36.24456230000001,43.9990339,4.5,"['restaurant', 'food', 'point_of_interest', 'establishment']","Happy kids zone, Near, عنكاوا، Erbil",2,127
29,Ahmed restaurant,ChIJpQsBSWUhB0ARgtIdLTiagK0,36.2196441,44.0306975,4.0,"['restaurant', 'food', 'point_of_interest', 'establishment']","629J+V74, Erbil",2,77
30,Basilic restaurant & café,ChIJKYNaSb4jB0ARjTaR4-GOHCk,36.2164741,44.0036134,4.6,"['restaurant', 'food', 'point_of_interest', 'establishment']","6283+HCX, Erbil",2,32
31,Asian Bistro Restaurant,ChIJFwjFOtQfB0ARDAEzZEJHGhE,36.2358772,43.9965682,4.3,"['restaurant', 'food', 'point_of_interest', 'establishment']","44004 Two side, Erbil",2,22
32,Gemsbok Restaurant,ChIJFYilQH8jB0ARJ7tpAUPKO7U,36.1857377,44.0396284,0.0,"['restaurant', 'food', 'point_of_interest', 'establishment']","52PQ+7RX, Peshawa Qazi, Erbil",2,0
33,RESTOBAR RESTAURANT & BAR,ChIJBew0A-cjB0AR9M3-M_8K6bA,36.2091865,43.9812927,4.5,"['bar', 'restaurant', 'food', 'point_of_interest', 'establishment']","44001, parkview Erbil",2,33
34,Naz Restaurant,ChIJtWUOUQUjB0AR1SCTQq9XNT4,36.2078372,43.9934854,3.5,"['restaurant', 'food', 'point_of_interest', 'establishment']","Media School, Bakhtiary 20m road opposite, Ainkawa, Erbil",2,28
35,Bistro Restaurant Hyatt Regency Hotel,ChIJN2kZh50jB0AR_Yr9284rhmo,36.2121943,43.9933224,5.0,"['restaurant', 'food', 'point_of_interest', 'establishment']","6X6V+WCR, Erbil",2,5
36,Hiror هرور,ChIJj4N2yFMhB0ARlXWUAMMgPAc,36.24419280000001,44.0656398,4.4,"['restaurant', 'food', 'point_of_interest', 'establishment']",Zin City Erbil Kurdistan,2,983
37,Diavola Restaurant,ChIJ3Zg401ElB0AR7vqq9ipNngw,36.1530311,44.0433441,5.0,"['restaurant', 'food', 'point_of_interest', 'establishment']","523V+57C, Erbil",2,1
38,Kasa Brnj restaurant,ChIJh7N0SpcjB0ARyZyN1DkcWns,36.2031688,44.0104352,4.2,"['restaurant', 'food', 'point_of_interest', 'establishment']","6236+766, Aras, Erbil",2,97
39,Shay Chezh Kurdish Traditional Restaurant,ChIJw8VUK74jB0ARFkdQm_AlD9M,36.1670386,44.011143,4.2,"['restaurant', 'food', 'point_of_interest', 'establishment']","5286+RF6, Erbil",2,39
40,Nay Restaurant,ChIJF4gyK1gjB0ARFvTsxJmOLJA,36.20918640000001,43.9813383,4.8,"['restaurant', 'food', 'point_of_interest', 'establishment']",Erbil,2,15
41,Flava Restaurant,ChIJM_zZV6MZB0ARdfz98csBOak,36.2323405,43.9875816,5.0,"['restaurant', 'food', 'point_of_interest', 'establishment']","6XJQ+X4, Erbil",2,2
42,Splendor Cafe and Restaurant,ChIJj7nQtL4iB0ARb1K2QuGyWN8,36.1869144,43.9623372,3.6,"['restaurant', 'food', 'point_of_interest', 'establishment']","5XP6+QW8, Peshawa Qazi, Erbil",2,216
43,Zerin Restaurant,ChIJRZn_178lB0ARrEfTyz2eFnM,36.166204,44.05234069999999,3.0,"['restaurant', 'food', 'point_of_interest', 'establishment']","5382+FWP, Bnaslawa Old Rd, Erbil",2,2
44,Hawler Restaurant,ChIJqWJnYkYZB0ARvFvD2Cl8sSU,36.2299339,43.9870678,0.0,"['restaurant', 'food', 'point_of_interest', 'establishment']","across korek telecom, Ankawa Bypass Rd, Erbil",2,0
45,WOOD LOUNGE BAR & RESTAURANT,ChIJRS42L-EZB0ARuZ4fPccwnvY,36.208393,43.9743423,4.4,"['restaurant', 'food', 'point_of_interest', 'establishment']","wood bar, Erbil",2,149
46,Alagha Land Restaurant,ChIJsf0MsVshB0ARZ4eFmRHgiJ0,36.2046542,44.1165642,4.0,"['restaurant', 'food', 'point_of_interest', 'establishment']","infront of lawan, Two side Koya St, Erbil",2,41
47,Diyarbakır Restaurant,ChIJq-s_l4shB0ARqt0oUaX6xlc,36.2159518,44.0345962,4.1,"['restaurant', 'food', 'point_of_interest', 'establishment']","628M+9RP, Pirmam St, Erbil",2,78
48,Qassab restaurant خواردنگەی قەساب,ChIJ02tBthojB0ARAfeP0jdP01Q,36.1858726,43.9930373,5.0,"['restaurant', 'food', 'point_of_interest', 'establishment']","5XPV+665, Erbil",2,5
49,The Dates Restuarant and Cafe,ChIJa4J8A1cjB0ARIjxu2V63_RY,36.193966,43.9670143,4.0,"['restaurant', 'cafe', 'food', 'point_of_interest', 'establishment']","Vital Village Street, Vital Village Rd, Erbil",2,420
50,Arches Restaurant & Lounge,ChIJh46SOJQfB0ARhvwT2C9OfYw,36.2427594,43.9908635,4.3,"['restaurant', 'food', 'point_of_interest', 'establishment']","6XVR+38X, Unnamed Road, Erbil",2,33
51,Happy Place Restaurant,ChIJ_fvA-ZQfB0AR9Lf2MTGx0FE,36.2349434,44.0090003,4.3,"['restaurant', 'food', 'point_of_interest', 'establishment']","Marhaba Hall to, Bahar St, Erbil",2,4
52,Zirak Restaurant,ChIJnVsTxNAhB0ARiss9NUi_3co,36.2484261,44.0860633,4.0,"['restaurant', 'food', 'point_of_interest', 'establishment']","63XP+9CG, Unnamed Road, Shaways",2,3
53,Night Corner Cafe & Resto,ChIJg3Qb1zsfB0ARlXYyV9BcuWM,36.230554,44.0034299,3.9,"['restaurant', 'food', 'point_of_interest', 'establishment']","62J3+69F، Unnamed Road, Erbil",2,46
54,Samad Restaurant,ChIJIZrKrEEiB0ARQyDkZ09plx0,36.20393749999999,44.0086875,4.1,"['restaurant', 'food', 'point_of_interest', 'establishment']","6235+HF, Erbil",2,2595
55,Cold cafe & restaurant,ChIJnaTvRKkZB0ARkn1DhwWGARU,36.2309494,43.9905014,3.9,"['restaurant', 'food', 'point_of_interest', 'establishment']",Erbil,2,36
56,Baba Pasha Fish Restaurant,ChIJo6hJCU8jB0ARwczSQHICmL0,36.2036875,44.0191875,3.6,"['restaurant', 'food', 'point_of_interest', 'establishment']","6239+FM, Erbil",2,19
57,Green Eleven restaurant and cafe,ChIJX173dg0ZB0ARg_dCAKqTlBg,36.2203123,43.9889558,4.0,"['restaurant', 'food', 'point_of_interest', 'establishment']","Qazi Muhammad, Erbil",2,74
58,Black Opal Restaurant - مطعم بلاك اوبال,ChIJwbSTeJsjB0ARSSdNtmFmC58,36.2226715,44.0090942,3.9,"['restaurant', 'food', 'point_of_interest', 'establishment']","Guran Ankawa, Behind Al-suaidi Hospital, Erbil Kurdistan Region",2,198
59,Venezia Restaurant and Cafe,ChIJQyXHjeAjB0ARnI087sgk9Sc,36.195987,44.0643476,3.8,"['restaurant', 'food', 'point_of_interest', 'establishment']","53W7+9PX, Erbil",2,54
60,Al Khal Restaurant,ChIJ_7FvEY4jB0ARU6njPDH7h_E,36.2060012,43.9960572,3.8,"['restaurant', 'food', 'point_of_interest', 'establishment']","20 جانب عقارات سرتيب, Bakhtiari, Erbil",2,249
61,خۆاردنگەی شێف موحەممەد سەوادی - مطعم الشيف محمد سوادي,ChIJofKCn5gZB0AROH1xLLSLiag,36.2226194,44.0001589,3.7,"['restaurant', 'food', 'point_of_interest', 'establishment']","62F2+33C، پێشەوە قازی, Erbil",2,149
62,مطعم الدمشقي هفلان,ChIJf8cZPYYjB0ARx6pxmxTr5aA,36.1923809,44.0616817,4.3,"['restaurant', 'food', 'point_of_interest', 'establishment']",Erbil,2,43
63,Madina Restaurant,ChIJNQDg9hwjB0ARUQ4NM2L1eHM,36.1725006,43.9947624,4.1,"['restaurant', 'food', 'point_of_interest', 'establishment']","5XFV+2W2, Alban, Erbil",2,58
64,Qaser Rashed Restaurant,ChIJ_ahfkV8jB0AR5MaZ8QJQWO4,36.2035082,44.0103795,4.0,"['restaurant', 'food', 'point_of_interest', 'establishment']","6236+C52, Kurdistan, Erbil",2,20
65,Mala Qasim Kabab,ChIJIx-r2hQjB0ARBjiSYWOTx3c,36.1676555,44.03647429999999,4.0,"['restaurant', 'food', 'point_of_interest', 'establishment']","529P+3H9، Unnamed Road, Erbil",2,332
66,مطعم ميامي - MIAMI RESTAURANT,ChIJJTv-YkofB0AR_7ASTtyxQ-Q,36.234594,43.9929216,4.0,"['restaurant', 'food', 'point_of_interest', 'establishment']","Mar Elia Church Street, Erbil",2,221
67,Habeeb Kurdish Restaurant,ChIJ97h6Xj4jB0AR2tFH1wVsdvw,36.1772703,44.0183084,4.2,"['restaurant', 'food', 'point_of_interest', 'establishment']","52G9+W83, Erbil",2,166
68,مطعم الصفوق,ChIJJ1PLNCUjB0AREAe5u0Q8yD4,36.18831249999999,44.0533125,4.1,"['restaurant', 'food', 'point_of_interest', 'establishment']","53Q3+88G, Erbil",2,54
69,مطعم بساتين الشام,ChIJEYj261AlB0ARtX80Og7k1a4,36.1559179,44.0326137,4.0,"['restaurant', 'food', 'point_of_interest', 'establishment']","524M+929, Erbil",2,84
70,Abu Shahab City Restaurant,ChIJcypMHwsiB0AR-CWl2IcMSVk,36.2145466,43.9937576,4.0,"['restaurant', 'food', 'point_of_interest', 'establishment']",Erbil,2,2670
71,مطعم جنة حلب,ChIJ-6w_adwjB0ARckVFYMHhblI,36.1780959,44.0181418,4.1,"['restaurant', 'food', 'point_of_interest', 'establishment']","Iskan, Erbil",2,78
72,مطعم ئاکرێ,ChIJzSSTu-nhBkARcdP4h5s8MZE,36.3033831,44.0233551,4.0,"['restaurant', 'food', 'point_of_interest', 'establishment']",Unnamed Road Bahirka بحركه,2,78
73,Tabeekh Restaurant مطعم طبيخ,ChIJ4VITfQAiB0AR7DNmWQ8w1YI,36.22391229999999,44.0046081,4.1,"['restaurant', 'food', 'point_of_interest', 'establishment']","بەنزینخانەی هوگر، شارع ١٠٠متر مقابل سايدين عينكاوا بجانب بانزينخانه هوگر هەولێر - جادەی ١٠٠ مەتری - بەرامبەر عینکاوە - تەنیشت, Erbil",2,1370
74,Abu Wassif restaurant (مطعم أبو واصف ),ChIJDdiIm6sZB0ARadBqNUGYmzQ,36.2116823,43.980782,5.0,"['restaurant', 'food', 'point_of_interest', 'establishment']",Naz 46- ناز 46،,2,5
75,Yemen Mandi Restaurant,ChIJg_GUkzciB0ARdYmsEWyPo5w,36.202194,44.0209267,4.2,"['restaurant', 'food', 'point_of_interest', 'establishment']","مجاور رويال مول, Shoresh Bridge, Erbil",2,1136
76,مطعم لفات شاورما قرب الجوازات بارك ٣٢,ChIJL5fi3LsjB0AROpeRuBgGdLY,36.183148,43.9538682,5.0,"['restaurant', 'food', 'point_of_interest', 'establishment']",Erbil,2,5
77,مطعم الوميض,ChIJZQSk4BYlB0ARdAY3t_Ppf4I,36.1540489,44.0395743,4.0,"['restaurant', 'food', 'point_of_interest', 'establishment']",Erbil,2,59
78,Abdullah Restaurant,ChIJV1YG0LI8B0ARVnie-V5lccw,36.1565405,43.9981306,3.9,"['restaurant', 'food', 'point_of_interest', 'establishment']","5X4X+J76, Erbil",2,36
79,Olive Restaurant,ChIJQR0emxs7B0ARkIYRkliorIM,36.1241467,44.0175458,3.9,"['restaurant', 'food', 'point_of_interest', 'establishment']",Erbil,2,195
80,Zahrat Al Sham Restaurant,ChIJLe3RhtQmB0ARPH0mym38tj0,36.2043243,44.1210375,4.0,"['restaurant', 'food', 'point_of_interest', 'establishment']","643C+PCC plus life complex, Shariy ANDAZYARAN",2,216
81,Sham Restaurant,ChIJZxa-JQwjB0ARRctJrXzGoqg,36.1781969,44.0177755,3.6,"['restaurant', 'food', 'point_of_interest', 'establishment']","52H9+74M, Erbil",2,267
82,Al Rabouh Restaurant,ChIJW58sNrwiB0ARM3KPkQOIKR0,36.1891362,43.9624356,3.8,"['restaurant', 'food', 'point_of_interest', 'establishment']","5XQ6+MX2, Qazi Muhammad, Erbil",2,203
83,مطعم ليالي قامشلو,ChIJ4TmJqGs7B0ARy97Ec2_IGQI,36.1214238,43.9691696,4.2,"['restaurant', 'food', 'point_of_interest', 'establishment']","Makhmur, قتوي،",2,99
84,مطعم مندلي,ChIJ__2qcgkjB0ARhIAPDrVA0AI,36.194736,44.06020650000001,4.0,"['restaurant', 'food', 'point_of_interest', 'establishment']","53V6+W49، كويه، اربيل،, Erbil",2,58
85,Tamdar Restaurant,ChIJUcXJ5VAiB0ARbp2zUOVRAvw,36.1995546,43.9990963,3.9,"['restaurant', 'food', 'point_of_interest', 'establishment']","5XXX+VM4, Erbil",2,270
86,Samad Restaurant,ChIJIZrKrEEiB0ARQyDkZ09plx0,36.20393749999999,44.0086875,4.1,"['restaurant', 'food', 'point_of_interest', 'establishment']","6235+HF, Erbil",2,2595
87,Heshu Restaurant,ChIJZ0CMKDcjB0AR4wC14zXG_L8,36.1666867,43.99626050000001,3.9,"['restaurant', 'food', 'point_of_interest', 'establishment']","5X8W+JGW, جادەی مخمور نزیک مزگهوتی شهید خدر سوارە Erbil زورگەزراو, Erbil",2,179
88,مطعم كباب فاروق,ChIJG1tpggwjB0AREjENDSkGKi8,36.1773879,44.0210783,4.0,"['restaurant', 'food', 'point_of_interest', 'establishment']","60 m, Erbil",2,1316
89,Yousif Restaurant,ChIJedxi7f8iB0AR_bauin0clUk,36.1883613,44.0075409,3.8,"['restaurant', 'food', 'point_of_interest', 'establishment']","52Q5+82V، Yousif Azeez, Ground Floor., Bata, Erbil",2,37
90,Ali Al Qasab restaurant,ChIJxZW4C88mB0ARj74V8fa2K3s,36.1976612,44.1191107,3.5,"['restaurant', 'food', 'point_of_interest', 'establishment']","54X9+3M7, Erbil",2,132
91,Silya Restaurant and Cafe,ChIJJ-dTQPInB0AR3FN5obNKwxA,36.21884960000001,44.1471235,4.1,"['restaurant', 'food', 'point_of_interest', 'establishment']","649W+GRX, Unnamed Road, Kasnazan",2,100
92,Today Restaurant,ChIJEU2m558kB0AR555kG6llXfQ,36.1613597,44.0306615,4.0,"['restaurant', 'food', 'point_of_interest', 'establishment']","526J+H74, Erbil",2,2157
93,Abdulrahman Resturant,ChIJY1PNkfIjB0AReZB8R8udSoA,36.1891399,44.0077877,4.8,"['restaurant', 'food', 'point_of_interest', 'establishment']","Salahaddin, Erbil",2,8
94,Dokaly Kabab Restaurant,ChIJqQ0XYmAZB0ARYPX5rIlpwvE,36.2290965,43.9907111,4.3,"['restaurant', 'food', 'point_of_interest', 'establishment']",اربيل ، عنكاوا ، قرب كنيسة مار يوسف Erbil Ankawa,2,296
95,Abdullah Fast Food | مطعم عبدالله,ChIJ10_OAPYjB0AR1p8PDiZWv2s,36.2038063,44.0127905,4.3,"['restaurant', 'food', 'point_of_interest', 'establishment']","مسجد البیظاء،, اربيل،",2,41
96,Marina Restaurant,ChIJtXPWxCMfB0ARrfxnOBQAfag,36.2450941,43.99004180000001,4.1,"['restaurant', 'food', 'point_of_interest', 'establishment']",Bahirkah Street erbil-ankawa-108 0000,2,652
97,Kebab,ChIJ5xfAjOAjB0ARRPdppCC8chI,36.1959731,44.0646298,3.9,"['restaurant', 'food', 'point_of_interest', 'establishment']","53W7+9VJ, Erbil",2,73
98,مطعم الحجية,ChIJ67QFOnQfB0ARr_BArWDLuT8,36.2341773,43.9897847,4.0,"['restaurant', 'food', 'point_of_interest', 'establishment']","6XMQ+MWF, Unnamed Road, Erbil",2,27
99,مطعم أبو عزيز/ABO AZIZ RESTURANT,ChIJ-ckMRPkjB0ARM2caXOctNYg,36.1880604,44.00303419999999,0.0,"['restaurant', 'food', 'point_of_interest', 'establishment']",سوق الشیخ چولي، Tairawah,2,0
100,مطعم اسبس,ChIJR9u0T3IjB0AR0cOb4Af93Qk,36.179653,44.0054476,2.5,"['restaurant', 'food', 'point_of_interest', 'establishment']","52H4+V58، محطة، اربيل،, Erbil",2,2
101,مطعم خالد,ChIJP9TbLngjB0ARW4My37CV-Ww,36.17370400000001,44.0366237,3.8,"['restaurant', 'food', 'point_of_interest', 'establishment']",Erbil,2,21
102,Ahlan Restaurant Erbil,ChIJsz2upiEjB0AR9Yb245ocbXQ,36.1867123,43.9715723,4.4,"['restaurant', 'food', 'point_of_interest', 'establishment']","Rotana Rd, Erbil",2,20
103,مطعم الدولي العائلي,ChIJQa4uYwohB0ARejvJJzX8Tns,36.2272148,44.0497054,4.1,"['restaurant', 'food', 'point_of_interest', 'establishment']",Shaqlawa road Erbil Kurdistan,2,55
104,مطعم الطبق الساخن,ChIJyXbao2UlB0ARctl3zICtalM,36.1570813,44.0362421,3.4,"['restaurant', 'food', 'point_of_interest', 'establishment']","524P+RFQ, Runaki Rd, Erbil",2,7
105,مطعم,ChIJOX8eEuglB0ARB2Q0iwwlQto,36.164745,44.0462648,0.0,"['restaurant', 'food', 'point_of_interest', 'establishment']","527W+VGR, Erbil",2,0
106,مطعم وقهوة ابو حاتم عروس الشام,ChIJV0c0gy8jB0AR8Kxhm-gW0ds,36.1890309,44.0098012,4.0,"['restaurant', 'food', 'point_of_interest', 'establishment']","52Q5+JV3, Erbil",2,14
107,مطعم حدايق بليسان,ChIJh3YvIc0jB0ARVmywJSAE7eE,36.1961734,44.0574066,3.9,"['restaurant', 'food', 'point_of_interest', 'establishment']","53W4+FX3, Erbil",2,8
108,Gandool Restaurant,ChIJy-w6hb4kB0ARstn40RQo7o8,36.1595703,44.0342686,3.9,"['restaurant', 'food', 'point_of_interest', 'establishment']","525M+RPC, Erbil",2,78
109,Fattoush Restaurant,ChIJLUJI4K0YB0ARTdQ86YUiB4c,36.2260382,43.9949927,4.5,"['restaurant', 'food', 'point_of_interest', 'establishment']","6XGV+CX9, Erbil",2,15
110,Prego Restaurant,ChIJE8S0ZUwfB0AR1Kqfd05-l0g,36.2321068,43.9976054,4.0,"['restaurant', 'food', 'point_of_interest', 'establishment']","6XJX+R3R, Ankawa Blvd, Erbil",2,434
111,چێشتخانەی مطعم عوافي,ChIJ4UcZw20ZB0ARmZdxHPo7AL4,36.22157720000001,43.9938645,5.0,"['restaurant', 'food', 'point_of_interest', 'establishment']","6XCV+HG, Erbil",2,3
112,مطعم كرم ابو العز,ChIJbeAR_7vhBkAR285LwobFcU4,36.2908076,44.0327938,3.7,"['restaurant', 'food', 'point_of_interest', 'establishment']","72RM+84F, Bahirka",2,20
113,مطعم الشيف محمد سوادي,ChIJ30pLFwMZB0AR9hVPkZQB0Nc,36.2188038,43.98798250000001,3.6,"['restaurant', 'food', 'point_of_interest', 'establishment']","6X9Q+G53, Peshawa Qazi, Erbil",2,74
114,مطعم,ChIJ_4j8D6cjB0ARrYL_kCkkrMs,36.1842021,44.03645969999999,4.0,"['restaurant', 'food', 'point_of_interest', 'establishment']",52MP+MHP، اربيل،,2,1
115,مطعم,ChIJUyY9xmMlB0ARxqAG2hymsxY,36.1371612,44.0439831,4.2,"['restaurant', 'food', 'point_of_interest', 'establishment']","42PV+RHJ, Erbil",2,5
116,مطعم صوفي فرج,ChIJqa5A5IUhB0ARufJRSe4V8ko,36.2110389,44.0759213,4.2,"['restaurant', 'food', 'point_of_interest', 'establishment']","636G+C97, Erbil",2,21
117,مطعم قلادزي (كباب قلادزی),ChIJ0cmLY1IiB0ARmCzZYl55uTw,36.1936271,44.01521220000001,4.3,"['restaurant', 'food', 'point_of_interest', 'establishment']","52V8+F34, Erbil",2,232
118,TODAY Roya Towers Restaurant And Cafe,ChIJGShqdqEjB0ARshUcMywM-Pk,36.1917222,43.9693897,4.1,"['restaurant', 'food', 'point_of_interest', 'establishment']","5XR9+MQJ, Erbil",2,1253
119,مطعم سمجكم,ChIJydXob6kfB0ARwltksAVAhs0,36.2350093,43.98636519999999,4.2,"['restaurant', 'food', 'point_of_interest', 'establishment']","شارع المساطحات, Erbil",2,11
120,نكهة ماكولات الشاميه,ChIJnwRGJlcjB0ARNVuUondMfVM,36.1864838,44.0107276,4.5,"['restaurant', 'food', 'point_of_interest', 'establishment']","Hanzo Group Building، Nihtiman Shopping Center , 3rd floor Building No. 688 689، اربيل بازار نيشتمان",2,27
121,Food City مدينة الغذاء,ChIJ_clZ6B_iBkAR8YRhud7YZbw,36.3064132,44.0239284,3.8,"['restaurant', 'food', 'point_of_interest', 'establishment']","824F+HH7, Bahirka",2,48
122,مطعم مأكولات الشامية,ChIJ84YoXlIjB0AR1aBNSIaHGb4,36.1863002,44.0107721,3.6,"['restaurant', 'food', 'point_of_interest', 'establishment']","بازار نيشتمان، طريق كركوك عند, Erbil",2,48
123,مطعم,ChIJQ9-QXzclB0ARYDI_2W_NQPM,36.1527869,44.0900815,0.0,"['restaurant', 'food', 'point_of_interest', 'establishment']",طریق بنصلاوة,2,0
124,mashalla fast food,ChIJmWQavBYlB0ARVgeMywBDdd8,36.157625,44.1204191,4.3,"['restaurant', 'food', 'point_of_interest', 'establishment']",545C+25V، بنصلاوة،,2,6
125,Fast Food الكبير,ChIJJxTj5HcjB0ARlZc3JLnjiiY,36.190073,43.9930303,4.8,"['restaurant', 'food', 'point_of_interest', 'establishment']",جامع التون ستي، أربيل طريق بنصلاوة قرب,2,5
126,الاغا لان ماكولات سريعة,ChIJS0iS1EYhB0ARYa9DfvnOq_k,36.2040541,44.1154299,3.0,"['restaurant', 'food', 'point_of_interest', 'establishment']","6438+J5F, Erbil",2,2
127,تجهيزات مدينة الغذاء /FOOD CITY,ChIJ8dnui03jBkARwI-V69GNS_A,36.3133213,44.03084459999999,4.0,"['restaurant', 'food', 'point_of_interest', 'establishment']","827J+88H، Unnamed Road, Bahirka",2,4
128,FOOD COURT,ChIJ4yayPQ8jB0ARMjoyNzAxMu4,36.1713558,44.012586,4.7,"['restaurant', 'food', 'point_of_interest', 'establishment']","Tablo Mall, Erbil",2,31
129,مأكولات الريف الشمالي. كوليرى,ChIJZxHWgs0jB0ARMVKtvjYXjco,36.2128508,44.0263725,4.0,"['restaurant', 'food', 'point_of_interest', 'establishment']","627G+4GX، شارع حديد وخشب, Erbil",2,3
130,سمك مسگوف طيب,ChIJsxnMO8XhBkARyjmaTOq0gzg,36.3001508,44.0209586,5.0,"['restaurant', 'food', 'point_of_interest', 'establishment']","822C+4C6, Bahirka",2,3
131,Grand fast food,ChIJkyDSu6kjB0ARNC62ZrrwEO0,36.1788331,44.0219736,4.6,"['restaurant', 'food', 'point_of_interest', 'establishment']","52HC+GQQ, Kurdistan, Erbil",2,10
132,Diet meal,ChIJP4kCwQIfB0ARv4ajkDnBPqo,36.2240486,43.9992637,4.3,"['restaurant', 'food', 'point_of_interest', 'establishment']","Kheruta, Erbil",2,35
133,Tasty Food,ChIJT_3p_ksZB0ARFL7unhBpgck,36.231142,43.9934751,0.0,"['restaurant', 'food', 'point_of_interest', 'establishment']",6XJV+C9Q، المنتزة,2,0
134,كبة وبورك مأكولات سريعة,ChIJuyMWR4ojB0ARpmz73pA5ROs,36.177216,44.0184624,0.0,"['restaurant', 'food', 'point_of_interest', 'establishment']","52G9+V9P, Erbil",2,0
135,My Meal Fast Food,ChIJezXd8g4jB0ARdVF_sYPZBLY,36.1964354,44.023941,4.2,"['restaurant', 'food', 'point_of_interest', 'establishment']",٦٠، اربيل،،,2,6
136,Abdullah Fast Food | مطعم عبدالله,ChIJ10_OAPYjB0AR1p8PDiZWv2s,36.2038063,44.0127905,4.3,"['restaurant', 'food', 'point_of_interest', 'establishment']","مسجد البیظاء،, اربيل،",2,41
137,مطعم وجبات السريعه,ChIJUVuRAoAlB0ARY6e4GepnYzE,36.1405499,44.0718585,3.3,"['restaurant', 'food', 'point_of_interest', 'establishment']","43RC+6P9، Unnamed Road،, Erbil",2,3
138,Meer fast food,ChIJP8SymeEjB0ARgfOLtrinzU8,36.2041245,44.0139321,5.0,"['restaurant', 'food', 'point_of_interest', 'establishment']",60m، اربيل،,2,2
139,Business fast food,ChIJX3VauwMlB0ARKj9xjxHj_5o,36.1573976,44.02231860000001,4.0,"['restaurant', 'food', 'point_of_interest', 'establishment']","524C+XW7 اربيل, Peshawa Qazi, متري",2,10
140,مأكولات المشاوي الحلبية,ChIJo-xNTvEjB0ARjgVoaOygDF8,36.1875532,44.0610412,0.0,"['restaurant', 'food', 'point_of_interest', 'establishment']","53Q6+2CW, Erbil",2,0
141,Naranj نارنج,ChIJc9OakJAiB0ARL_PWN_QMHLk,36.1956544,43.9683681,4.1,"['restaurant', 'food', 'point_of_interest', 'establishment']","100 Meter Street, next to English Village Erbil Kurdistan",2,726
142,Food Time restaurant,ChIJpaZLatUjB0ARW8c5tQqxURA,36.194232,44.0473344,5.0,"['restaurant', 'food', 'point_of_interest', 'establishment']","بجانب حلويات نفيسة, بجانب جبس الكرادة, Koya Rd, Erbil",2,1
143,مطعم حدايق بليسان,ChIJh3YvIc0jB0ARVmywJSAE7eE,36.1961734,44.0574066,3.9,"['restaurant', 'food', 'point_of_interest', 'establishment']","53W4+FX3, Erbil",2,8
144,كباب شعبي,ChIJ1Yn29I8jB0ARckiu2q-4i8U,36.1905506,44.0261704,0.0,"['restaurant', 'food', 'point_of_interest', 'establishment']",٦٠، اربيل،,2,0
145,Habruri Grill,ChIJTX3596sYB0ARjaWYmigFI7U,36.2247361,43.9995041,4.3,"['restaurant', 'food', 'point_of_interest', 'establishment']",Kheruta Street Erbil Ankawa,2,660
146,Indigo Express Indian Fast Food,ChIJs3WL4zciB0ARFRV_Vm3Ysbk,36.2015854,44.0197375,4.0,"['restaurant', 'food', 'point_of_interest', 'establishment']","60 Metre Road, Erbil",2,48
147,كوبه ى مام سيد,ChIJGz9aVbUjB0ARwCNvmbAGcvw,36.1887642,44.0070887,4.0,"['restaurant', 'food', 'point_of_interest', 'establishment']","52Q4+FVC, Erbil",2,1
148,صاج دجاج عالفحم مأكولات سريعة,ChIJCUdovJ8jB0ARdAg3FPdjvqk,36.1772081,44.0184698,5.0,"['restaurant', 'food', 'point_of_interest', 'establishment']","52G9+V9Q, Erbil",2,1
149,Habana Del Este,ChIJHVp12HYjB0ARG6r03l-ETXA,36.2025563,43.9711345,4.0,"['restaurant', 'food', 'point_of_interest', 'establishment']",empire business complex erbil,2,195
150,Haji Fast Food,ChIJCY_M-RUjB0ARG94GKoIH3Lw,36.1696417,44.0048713,2.7,"['restaurant', 'food', 'point_of_interest', 'establishment']","5293+VW5, Erbil",2,3
151,Super food,ChIJQfB-kAgZB0ARcs7fpFUBmLE,36.230108,43.99381899999999,5.0,"['restaurant', 'food', 'point_of_interest', 'establishment']","6XJV+2GW, Erbil",2,1
152,چێشتخانەی حبیب / مطعم حبيب Habib Restaurant,ChIJI9jLSfYjB0ARDONXPhixYgY,36.1772279,44.0184319,4.2,"['restaurant', 'food', 'point_of_interest', 'establishment']","52G9+V9V, Erbil",2,125
153,Baghdadi fast food,ChIJEzPMQSYjB0ARXOU2c-iUvSM,36.1887686,44.0478254,3.3,"['restaurant', 'food', 'point_of_interest', 'establishment']","52QX+F4W, Erbil",2,7
154,Chef Mohammed sawadi,ChIJ535Ni0sZB0ARN6UtnoxenBY,36.2189352,43.9878065,3.2,"['restaurant', 'food', 'point_of_interest', 'establishment']","6X9Q+H4F, Peshawa Qazi, Erbil",2,9
155,مشاوي اربيل,ChIJQwkngP8jB0ARKvnSFbncwU8,36.1828499,44.0519502,0.0,"['restaurant', 'food', 'point_of_interest', 'establishment']","53M2+4QW, Erbil",2,0
156,Welldone Bowl Restaurant,ChIJyw9TLbAYB0ARXsoMiLqkYBo,36.225625,43.99103880000001,4.4,"['restaurant', 'food', 'point_of_interest', 'establishment']",Erbil,2,532
157,مطعم الطبق الساخن,ChIJyXbao2UlB0ARctl3zICtalM,36.1570813,44.0362421,3.4,"['restaurant', 'food', 'point_of_interest', 'establishment']","524P+RFQ, Runaki Rd, Erbil",2,7
158,مطعم سمجكم,ChIJydXob6kfB0ARwltksAVAhs0,36.2350093,43.98636519999999,4.2,"['restaurant', 'food', 'point_of_interest', 'establishment']","شارع المساطحات, Erbil",2,11
159,Brnjistan,ChIJkRfkfAAZB0ARlUYs6SqU50g,36.225039,43.99553,3.4,"['restaurant', 'food', 'point_of_interest', 'establishment']","6XGW+266, al muntazah street, Erbil",2,12
160,Asian Bistro Restaurant,ChIJFwjFOtQfB0ARDAEzZEJHGhE,36.2358772,43.9965682,4.3,"['restaurant', 'food', 'point_of_interest', 'establishment']","44004 Two side, Erbil",2,22
161,Food n mood,ChIJr3XJXNsjB0AR5eqdFNuPOcs,36.2066875,43.9734375,5.0,"['restaurant', 'food', 'point_of_interest', 'establishment']",Erbil,2,1
162,مطعم جود الشام,ChIJsZpsJ38jB0AR5ioSDJpzfJE,36.1958598,44.0084537,0.0,"['restaurant', 'food', 'point_of_interest', 'establishment']","52W5+89R, Erbil",2,0
163,Zahrat Erbil Restaurant,ChIJaU8yqh8jB0ARWVGScwhnBag,36.180921,44.05073489999999,4.0,"['restaurant', 'food', 'point_of_interest', 'establishment']","53J2+993، Unnamed Road, Erbil",2,1
164,مطعم ندى الشام,ChIJg770zJIjB0ARsPKJ0xxUAn8,36.1673851,43.9811935,5.0,"['restaurant', 'food', 'point_of_interest', 'establishment']","5X8J+XF4، کوردستان، اربيل،, Erbil",2,1
165,Big Home Fast Food,ChIJTf-uwt0jB0ARTBoVLjqZfd0,36.2106141,44.0117224,3.6,"['restaurant', 'food', 'point_of_interest', 'establishment']",Erbil,2,197
166,Tamdar Restaurant,ChIJUcXJ5VAiB0ARbp2zUOVRAvw,36.1995546,43.9990963,3.9,"['restaurant', 'food', 'point_of_interest', 'establishment']","5XXX+VM4, Erbil",2,270
167,Oleander Leaf,ChIJt_VM3BojB0ARscCvV5lrX7I,36.2066398,43.9731993,4.8,"['restaurant', 'food', 'point_of_interest', 'establishment']",Erbil,2,43
168,Kooki Fast Food,ChIJEedWGfXjBkARHGplFAr4UQg,36.3127518,44.03047369999999,3.0,"['restaurant', 'food', 'point_of_interest', 'establishment']","827J+45, Bahirka",2,1
169,Hot Kofte,ChIJBQnT_NsjB0AReszWxsKCHVI,36.1857951,43.962487,3.8,"['restaurant', 'food', 'point_of_interest', 'establishment']","5XP6+8WF, Erbil",2,34
170,Moroccan Corner- الركن المغربي,ChIJ23UD7CgjB0ARxtxZ5D7Kgq4,36.211234,43.9906428,4.7,"['restaurant', 'food', 'point_of_interest', 'establishment']",Erbil,2,12
171,لحم بعجين محمد,ChIJxcRjQHwZB0ARnj-7imEjW9M,36.2194245,43.9937468,0.0,"['restaurant', 'food', 'point_of_interest', 'establishment']","6X9V+RFW, Erbil",2,0
172,Buffalo Wings & Rings - Erbil,ChIJSQf3Y9YZB0ARsPSkM-yGOU0,36.2080053,43.97396980000001,4.3,"['restaurant', 'food', 'point_of_interest', 'establishment']",Erbil,2,878
173,Diet Food,ChIJdSPh2iEZB0ARGTW554BHBdc,36.2128125,43.9848125,3.7,"['restaurant', 'food', 'point_of_interest', 'establishment']","Naz naz، Unnamed Road, Erbil",2,13
174,Kabab saman کەباب سامان,ChIJG4dZXxYlB0ARKMIQTi9JVas,36.15134,44.0139156,4.0,"['restaurant', 'food', 'point_of_interest', 'establishment']","5227+GHM, Unnamed Road, هه ولێر کو ردستان, Erbil",2,19
175,Tasty Restaurant Dream City,ChIJFUiNFWsZB0ARsyMpDxAl7jc,36.2085055,43.9744031,3.8,"['restaurant', 'food', 'point_of_interest', 'establishment']","6X5F+CQ2, Unnamed Road, Erbil",2,29
176,Farhad Ankawi Fast food,ChIJk8IbEhIZB0ARzUnFXWoouWM,36.2333268,43.9886474,5.0,"['restaurant', 'food', 'point_of_interest', 'establishment']","6XMQ+8FJ, Unnamed Road, Erbil",2,6
177,Black Tap,ChIJ-5fQSqsjB0ARkt3WQcodQ-I,36.1961523,43.9665919,4.2,"['restaurant', 'food', 'point_of_interest', 'establishment']","VILLA, VITAL VILLAGE, NO: 40, Erbil",2,273
178,مطعم ابو جنة للاسماك و الدجاج,ChIJB3TjgjIlB0AR2RZz4TKaqAQ,36.16155090000001,44.0367603,5.0,"['restaurant', 'food', 'point_of_interest', 'establishment']","526P+JP6, Erbil",2,1
179,Food Zone,ChIJvUXAcEYbB0ARakf32hAw_24,36.2509214,43.9035327,5.0,"['restaurant', 'food', 'point_of_interest', 'establishment']","7W23+9C7, sebiran",2,2
180,Dose Cafe | دوز كافيه,ChIJFR9UU_sZB0ARCIO_kY8hAvs,36.2089375,43.9744375,4.1,"['cafe', 'restaurant', 'point_of_interest', 'food', 'store', 'establishment']","6X5F+HQ4, Erbil",2,37
181,ALMORA Cafe,ChIJLeunVF8fB0ARZ3H6jI-alBc,36.2289984,44.0044681,4.6,"['cafe', 'point_of_interest', 'food', 'establishment']","62H3+JP, Erbil",2,86
182,Down town cafe,ChIJ01NwTesZB0AR8-BEtwb8tcs,36.2100387,43.9751785,4.9,"['cafe', 'point_of_interest', 'food', 'store', 'establishment']","6X6G+23H, Erbil",2,13
183,Robusta Cafe,ChIJewjKntofB0ARQSSJgi27stA,36.2312044,43.9897273,4.5,"['cafe', 'point_of_interest', 'food', 'establishment']","6XJQ+FVF, Erbil",2,22
184,The Red Cup Cafe,ChIJ58BVRoIjB0AR5fp-RgBWSHQ,36.2018125,43.9670625,4.8,"['cafe', 'point_of_interest', 'food', 'store', 'establishment']","6X28+PR, Erbil",2,26
185,Cafe ladore,ChIJK1H0708jB0ARJCQ-fRGkC_g,36.2130218,43.99372580000001,4.0,"['cafe', 'point_of_interest', 'food', 'store', 'establishment']","40m Gulan St, Erbil",2,1
186,PORCH Cafe,ChIJ6e1dYvkfB0ARSC2JwjS4vVU,36.2292745,44.0042759,4.4,"['cafe', 'point_of_interest', 'food', 'establishment']",100 Meters Street Majdal Hotel Street Erbil Ankawa,2,31
187,ay cafe,ChIJLzcCzYYZB0AR5BteGnqtX6o,36.225494,43.99544299999999,0.0,"['cafe', 'point_of_interest', 'food', 'store', 'establishment']","6XGW+55F, Erbil",2,0
188,Cafe Del Mondo,ChIJrTEkYYcZB0ARuR3aVA8m9gg,36.2262743,43.9990764,4.0,"['cafe', 'point_of_interest', 'food', 'establishment']","6XGX+GJ4, Ankawa Blvd, Erbil",2,40
189,Mazaj cafe,ChIJw2PTHL4jB0ARa3PvFJEoEsI,36.190073,43.9930303,0.0,"['cafe', 'point_of_interest', 'food', 'store', 'establishment']","5XRV+26C, Erbil",2,0
190,Black walnut cafe,ChIJGRWBog8jB0ARuYMUU241mLE,36.2024647,43.9708079,4.5,"['cafe', 'point_of_interest', 'food', 'store', 'establishment']",Erbil,2,24
191,Rumi Cafe,ChIJC9VYDIgfB0ARD9HoZIXif_c,36.235717,43.997299,4.9,"['cafe', 'point_of_interest', 'food', 'store', 'establishment']","6XPW+7WM, Erbil",2,15
192,Centro Cafe,ChIJEb1YcO4fB0ARw8oe2am6CKc,36.2317495,43.9977134,4.4,"['cafe', 'point_of_interest', 'food', 'establishment']","6XJX+P35, main road, Erbil",2,10
193,Bolivia cafe,ChIJq8-cJWolB0AR9YRR9pUMRUU,36.1484344,44.0439819,4.0,"['cafe', 'point_of_interest', 'food', 'store', 'establishment']","42XV+9HG, Runaki Rd, Erbil",2,37
194,Coffeeshop,ChIJo8fNwxEjB0ARt06zUpfzdDA,36.1717895,44.013408,4.0,"['cafe', 'point_of_interest', 'food', 'establishment']","52C7+P97, Erbil",2,2
195,Gantha Cafe,ChIJvQfASyIfB0ARRrWuma_5YT4,36.2348487,44.0080165,4.2,"['cafe', 'point_of_interest', 'food', 'establishment']",unnamed road Erbil Ankawa,2,158
196,Dardasha Cafe,ChIJUQPxHo8hB0ARxbB4jitZcMg,36.2151935,44.0412372,3.8,"['cafe', 'point_of_interest', 'food', 'establishment']","628R+3FG, Peshawa Qazi, Erbil",2,42
197,هواك كافيه - Hawak Cafe,ChIJXeoipWcZB0ARsUei-rz0wMI,36.2082213,43.974095,4.4,"['cafe', 'point_of_interest', 'food', 'establishment']",Erbil,2,39
198,Bobbie's Cafe,ChIJT0zN3bIjB0AR0FFKG34DYww,36.2011642,43.9658539,5.0,"['cafe', 'point_of_interest', 'food', 'store', 'establishment']",Empire Diamond، 100 Meters,2,3
199,M’Cafe,ChIJJ4MP3VgZB0AROF-o02rETUo,36.2206998,43.9893272,4.1,"['cafe', 'point_of_interest', 'food', 'store', 'establishment']","Qazi Muhammad, Erbil",2,57
200,کافتریای برووسک Brusk Cafe,ChIJ7bjSuuMjB0ARIiBnacsUIQI,36.1790276,44.0159108,3.4,"['cafe', 'point_of_interest', 'food', 'establishment']","Brusik, Iskan, Erbil",2,14
201,Coffee shop,ChIJBwC85oIYB0ARW4mozymMfog,36.2108676,43.9772269,3.8,"['cafe', 'point_of_interest', 'food', 'establishment']","6X6G+8VX, Erbil",2,40
202,Origin Café,ChIJJV_sUWkjB0ARVrVoilo7WoA,36.202576,43.9704651,4.1,"['cafe', 'point_of_interest', 'food', 'establishment']","Empire world, Airport Rd, Erbil",2,129
203,Caffè Vergnano,ChIJv9_1EGIjB0ARvMXfoYH2Rcc,36.1742165,44.0365343,4.0,"['cafe', 'point_of_interest', 'store', 'food', 'establishment']","40m گولان 40 متر، اربيل،, Erbil",2,4
204,DreamCity. Cafe,ChIJs7hBZHkiB0ARkap1gbPyJbQ,36.2069102,43.9814657,3.9,"['cafe', 'point_of_interest', 'food', 'establishment']","6X4J+QH8, Erbil",2,8
205,Rumi Cafe,ChIJ-RwHBkIjB0AR_F8NGdPh_60,36.190073,43.9930303,0.0,"['cafe', 'point_of_interest', 'store', 'food', 'establishment']","6XPW+7WV, Erbil",2,0
206,Cafe Barbera Erbil,ChIJb4_4AqAjB0ARacitDGghWA4,36.2091534,43.9813218,4.2,"['cafe', 'restaurant', 'point_of_interest', 'food', 'establishment']","Park View, Erbil",2,754
207,Caffeine cafe,ChIJf2yuS-kjB0ARuYFRtm_FYCg,36.2011317,43.9676328,4.8,"['cafe', 'point_of_interest', 'food', 'establishment']","Empire, diamond, Erbil",2,4
208,Lastella Cafe کافتریای لاستێلا,ChIJl6u5D-chB0ARYr4XksNGdF4,36.21949,44.0223931,3.9,"['cafe', 'point_of_interest', 'food', 'establishment']","629C+PW, Erbil",2,11
209,TAZZA CAFE,ChIJn_PcGNsjB0ARs2Xee-7GXTk,36.2055313,43.9685149,4.6,"['cafe', 'point_of_interest', 'food', 'establishment']","Qazi Muhammad, Erbil",2,8
210,LEZEG CAFE,ChIJRXFjCEQjB0ARIeH_gXRJr2k,36.185084,44.012863,0.0,"['cafe', 'point_of_interest', 'store', 'food', 'establishment']","52M7+W5R Park Car, Rashid A.Qadir, Erbil",2,0
211,Helo Cafe,ChIJCyLLMtYjB0ARQtwEIJB6Qeo,36.1989557,43.96327549999999,5.0,"['cafe', 'point_of_interest', 'store', 'food', 'establishment']","5XX7+H8J, Erbil",2,1
212,Al Reef Cafe Erbil,ChIJfyrxQQYjB0ARNVd5PWjnZCk,36.2106161,43.9892078,4.3,"['cafe', 'point_of_interest', 'store', 'food', 'establishment']","6X6Q+6MW، Ps Street, Erbil",2,469
213,32 PARK CAFE,ChIJ6RxcWO0jB0AR-A8WmK1Pfrs,36.1914262,43.95523110000001,4.1,"['cafe', 'point_of_interest', 'food', 'establishment']","5XR4+H37, Erbil",2,55
214,Everyday cafe,ChIJ6z5QulsjB0ARyQGSV8kA_Ac,36.2050625,43.9726875,4.1,"['cafe', 'point_of_interest', 'store', 'food', 'establishment']","Unnamed Road, Erbil",2,14
215,Kaka cafe,ChIJSziH2gYjB0ARpWpMucNwv48,36.2118271,43.9897737,0.0,"['cafe', 'point_of_interest', 'store', 'food', 'establishment']","6X6Q+VW9, Gulan St, Erbil",2,0
216,Best Cup Cafe,ChIJvXg-5DYZB0ARhAltPMXkHBo,36.2190541,43.9938041,5.0,"['cafe', 'point_of_interest', 'food', 'establishment']","Erbil, Street",2,2
217,Cafe vergnano 1882,ChIJgR8HUjYjB0ARbXHbeHczU8c,36.1878506,43.9630345,4.6,"['cafe', 'point_of_interest', 'store', 'food', 'establishment']","11b Italian Village Rd, Erbil",2,18
218,Pi Cafe,ChIJyXMg5iojB0ARGMtKd2zK8FA,36.1931002,44.0550474,0.0,"['cafe', 'point_of_interest', 'store', 'food', 'establishment']","53V3+5W4, Erbil",2,0
219,The Coffee Bean & Tea Leaf,ChIJm0CbsuEjB0ARErylrQNQ-7o,36.1954307,44.0639583,3.8,"['cafe', 'point_of_interest', 'store', 'food', 'establishment']","C1, Koya Rd, Erbil",2,122
220,Fastlink Cafe,ChIJrYfl3A4jB0ARjw9uj9lipfo,36.1795287,44.0159451,3.7,"['cafe', 'restaurant', 'point_of_interest', 'food', 'establishment']","Iskan, Erbil",2,289
221,Seher alsham cafe,ChIJHVIRz78jB0AR_98OcC3koqw,36.2016176,44.0203072,5.0,"['cafe', 'point_of_interest', 'store', 'food', 'establishment']","622C+J4V, Erbil",2,3
222,Al Nakheel Cafe كافتيريا النخيل,ChIJlQF5LqYfB0ARLmIdJdvIzGA,36.2387872,43.9900905,5.0,"['cafe', 'point_of_interest', 'food', 'establishment']","6XQR+G2, Erbil",2,1
223,Odessa Cafe,ChIJdQOvBSwjB0ARzxWsAmJSINo,36.2180534,44.0095829,0.0,"['cafe', 'point_of_interest', 'food', 'establishment']","6295+8VM, Erbil",2,0
224,Mr. Espresso Cafe,ChIJ73ExinIfB0AR0qhrF9NGFu8,36.2291642,44.0043522,4.3,"['cafe', 'point_of_interest', 'food', 'establishment']","Bahar St, Erbil",2,190
225,"Cafe S , S",ChIJJ1eGdHAlB0ARU91-wdzWQJE,36.1553486,44.09917189999999,1.0,"['cafe', 'point_of_interest', 'food', 'establishment']","Erbil Hawler, طریق بنصلاوة القدیمة، Erbil",2,1
226,Avesta Cafe,ChIJI3hUat8YB0ARLgiNIW36N2s,36.2340952,43.9554848,2.9,"['cafe', 'point_of_interest', 'food', 'establishment']","6XM4+J5Q, Unnamed Road, Erbil, Erbil",2,35
227,solo land cafe کافتریا سولولاند,ChIJmUgtYRklB0ARHBG0-EMn-ok,36.1529318,44.017879,5.0,"['cafe', 'point_of_interest', 'food', 'establishment']","5239+55C, Erbil",2,3
228,W cafe,ChIJJ798eeQjB0ARkExABto2Mt4,36.2021701,44.0022526,0.0,"['cafe', 'point_of_interest', 'store', 'food', 'establishment']","6222+PRX, Erbil",2,0
229,CAFE DE BARON,ChIJ7zv1N5ciB0ARct4wSDMQK6I,36.1935285,43.96686560000001,3.8,"['cafe', 'point_of_interest', 'food', 'establishment']","5XV8+CP9, Vital Village Rd, Erbil",2,149
230,Savour Cafe Erbil,ChIJgYMCq0wZB0AR-tv8z6kucXM,36.2295854,43.9910162,5.0,"['cafe', 'point_of_interest', 'food', 'establishment']","6XHR+RCJ, Alley 74, Erbil",2,4
231,Arbêla Cafe,ChIJg6CXU1wjB0AR3JT8xhNU_T0,36.1901843,44.0100027,3.0,"['cafe', 'point_of_interest', 'store', 'food', 'establishment']","52R5+3W9, Erbil",2,2
232,Lolo cafe,ChIJrx-4eyAjB0AR6nbna_xNLZs,36.2107801,43.9884703,0.0,"['cafe', 'point_of_interest', 'store', 'food', 'establishment']","Suite 24 - 5th Floor - Building G، Naz City, Gulan St, Erbil",2,0
233,Lavazza Cafe,ChIJx21n74EYB0AREZ9aNumW3AQ,36.2079987,43.9739659,3.9,"['cafe', 'point_of_interest', 'store', 'food', 'establishment']","6X5F+5HW, Erbil",2,29
234,Car Cafe,ChIJW3KKfR4jB0ARUoanKKXk_is,36.2218117,43.9887369,4.0,"['cafe', 'point_of_interest', 'food', 'establishment']","Qazi Muhammad, Erbil",2,66
235,Blue Angle Cafe,ChIJDfZxhcoYB0ARwckRhHy1jxA,36.23271140000001,43.9868647,3.5,"['cafe', 'point_of_interest', 'food', 'establishment']","6XMP+3MH, Erbil",2,4
236,سكاى قەندیل. Cafe,ChIJ4QRuOzMjB0AREuM-T4WAfRQ,36.2016248,44.0181272,4.3,"['cafe', 'point_of_interest', 'food', 'establishment']","Jalil Khayat and his Children's Mosque, Kurdistan, Erbil",2,3
237,Sparta Café کافتریای سپارتا,ChIJrY15FZkjB0ARV_px4QLS-KE,36.1876891,44.0787847,4.2,"['cafe', 'point_of_interest', 'food', 'establishment']","Kornish road, Erbil",2,184
238,Berhyah cafe Erbil,ChIJx0VoJHwjB0ARDuhrn_iC2VI,36.19025480000001,43.9747557,4.6,"['cafe', 'point_of_interest', 'food', 'establishment']","Neon center - AB Building, English Village Rd, Erbil",2,16
239,nay cafe,ChIJT97y7yEZB0ARo2AUYmPSYAk,36.2254888,43.9953741,3.0,"['cafe', 'point_of_interest', 'food', 'establishment']","6XGW+54X, Al Mashriq, Erbil",2,2
240,چێتخانەو کەبابی کانی ماران,ChIJC8ZcZ3WDBkARsELnIJYg7Ao,36.627877,44.4695499,3.8,"['restaurant', 'food', 'point_of_interest', 'establishment']","JFH9+5R, Soran",2,8
241,مطعم فاتاوە چێشتخانەی فاتاوە Fattawa Restaurant,ChIJc5NXXlqTBkAR_UBu5voyONM,36.4827624,44.3804334,4.3,"['restaurant', 'food', 'point_of_interest', 'establishment']","F9MJ+453, Shaqlawa",2,47
242,Town Restaurant,ChIJzRcgntUpBEARlPYH5DFVzu0,36.6541997,44.5362022,4.2,"['restaurant', 'food', 'point_of_interest', 'establishment']",erbil,2,145
243,Taran Restaurant ڕێستۆرانتی تاران,ChIJmR-HuxGbBkARB_4TEXA_Dng,36.5517386,44.4313539,4.3,"['restaurant', 'food', 'point_of_interest', 'establishment']","Erbil Governorate, Rmawezh",2,10
244,Tonight resturant,ChIJf3nigZQpBEARTjYd-W4FH_k,36.6464474,44.5414883,4.3,"['restaurant', 'food', 'point_of_interest', 'establishment']","JGWR+HHQ, Kawa St, Soran",2,39
245,مطعم زارگەلی,ChIJX0ruqdKDBkARenXhTY5INt0,36.6181384,44.4161084,0.0,"['restaurant', 'food', 'point_of_interest', 'establishment']","JC98+9FH, Khalifan",2,0
246,گازینۆ چێشخانەی ئەستێرە STAR Restaurant,ChIJ0Qp0mHaDBkARb4wO0F-sSGE,36.617389,44.4974053,4.8,"['restaurant', 'food', 'point_of_interest', 'establishment']","JF8W+XXH, Unnamed Road, Rawanduz",2,21
247,مطحم دەروازەی خەلیفان,ChIJj3WKQk2FBkARilI85w-1A6M,36.5943485,44.3825589,3.0,"['restaurant', 'food', 'point_of_interest', 'establishment']","H9VM+M5F, Khalifan",2,3
248,مطعم ماسي,ChIJqzk3Kf2TBkARsoenDLrQgJo,36.4821165,44.38039089999999,1.0,"['restaurant', 'food', 'point_of_interest', 'establishment']",3,2,1
249,تکەوکەبابی گەنجان,ChIJNX2QeGmDBkAROcQBfZkuAwY,36.6180854,44.4162808,5.0,"['restaurant', 'food', 'point_of_interest', 'establishment']","JC98+6GJ, Khalifan",2,1
250,گەس هونەری خەلیفان,ChIJQwTXmYaFBkARdgVve8LW2DI,36.6111546,44.40707279999999,4.0,"['restaurant', 'food', 'point_of_interest', 'establishment']","JC64+H5R, Khalifan",2,15
251,Resturant balakieaty,ChIJ6SN7QsYZBEAR_OKju34SuqE,36.5888078,44.7900405,3.0,"['restaurant', 'food', 'point_of_interest', 'establishment']","Rezan-رێزان, Razan",2,2
252,گەس و شاورمە و کەبابی گەنجان,ChIJPYOA04MpBEARZUGoz_IKBFI,36.6522225,44.5440101,4.5,"['restaurant', 'food', 'point_of_interest', 'establishment']","MG2V+VJJ, Soran",2,11
253,Nwehat Restaurant,ChIJ60NVymaEBkARGrqyMtZ2Sgo,36.6072977,44.4021115,4.2,"['restaurant', 'food', 'point_of_interest', 'establishment']","JC42+WR9, Khalifan",2,74
254,Masy kurytang,ChIJZ80_4RCbBkARc4wxKP4ys64,36.551024,44.4307722,1.0,"['restaurant', 'food', 'point_of_interest', 'establishment']","HC2J+C8, Khalifan",2,1
255,چێشتخانەی پاریس,ChIJQ92TdbEpBEARGreVfUwJEb0,36.6535625,44.5324375,0.0,"['restaurant', 'food', 'point_of_interest', 'establishment']","MG3J+CX, Soran",2,0
256,Khalifan gate restaurant,ChIJcxfCiWSFBkARy5TnSCSbt60,36.5943516,44.3823462,2.8,"['restaurant', 'food', 'point_of_interest', 'establishment']","H9VJ+PWX, 3, Khalifan",2,5
257,هات فووت Hat Food,ChIJrzVnAAUpBEARzWvp0vCM8WQ,36.6491355,44.5351799,0.0,"['restaurant', 'food', 'point_of_interest', 'establishment']","JGXP+M33, Soran",2,0
258,مطعم ئاراس,ChIJIT-Qr3MpBEAR16GPz4O3tMw,36.6553414,44.5405034,3.8,"['restaurant', 'food', 'point_of_interest', 'establishment']","MG4R+46C, 3, Soran",2,5
259,خواردنگەی طارق,ChIJt6xOmv81BEARvn1JbWoW47g,36.8015712,44.6671047,0.0,"['restaurant', 'food', 'point_of_interest', 'establishment']","RM28+JRH, Sidakan",2,0
260,Ciya Restaurant,ChIJV7ctdPSDBkARlSSGi8GaFuA,36.5988974,44.4585227,4.2,"['restaurant', 'food', 'point_of_interest', 'establishment']","HFX5+HC2, Soran",2,10
261,مطعم سوران بالاس soran palace restaurnt,ChIJmYJ3BF2DBkAR6WN5qIxhg4A,36.6479993,44.5014501,4.1,"['restaurant', 'food', 'point_of_interest', 'establishment']","JGX2+5HW, 3, Soran",2,41
262,Top Fast Food,ChIJrXaWhbEpBEARUtjPJsRfzdA,36.6514968,44.54466619999999,4.1,"['restaurant', 'food', 'point_of_interest', 'establishment']","MG2V+HVV, Soran",2,26
263,مطعم هەوارگەی بێخال Hawargai Bekhal restaurant,ChIJY8bPr0mdBkAREY85YeULk6k,36.606826,44.4934794,0.0,"['restaurant', 'food', 'point_of_interest', 'establishment']","JF4V+XM7, Soran",2,0
264,زنار,ChIJnXqsmCyDBkARYjp0AXrH3ik,36.6164604,44.4977939,4.0,"['restaurant', 'food', 'point_of_interest', 'establishment']","JF8X+H4M, Unnamed Road, Rawanduz",2,3
265,Kazm Resturant & Kabab چێشتخانە و کەبابی کازم,ChIJ_XGjCjAoBEAREl9wbnP4w5U,36.6504728,44.5197251,4.2,"['restaurant', 'food', 'point_of_interest', 'establishment']","MG29+5VX, Soran",2,43
266,قەلیە سێلی مەولانەRahmi usta,ChIJ2VPPLlMpBEARKgVciaAg9yw,36.6525725,44.54196169999999,3.0,"['restaurant', 'food', 'point_of_interest', 'establishment']","MG3R+3R4، شەقامی کومەلگای گەلالە, Soran",2,1
267,مطعم ئايان,ChIJ0Uoy00yDBkARtW9uMJkb04A,36.617427,44.4980123,4.0,"['restaurant', 'food', 'point_of_interest', 'establishment']","JF8X+X6C, Unnamed Road, Rawanduz",2,2
268,Hiwa Resturant,ChIJA3mxuN2dBkARlMZqZzfq9XQ,36.6139844,44.52741959999999,3.7,"['restaurant', 'food', 'point_of_interest', 'establishment']","JG7G+HXV, Unnamed Road, Rawanduz",2,14
269,مطعم وفندق شلال السياحي,ChIJyT4CLi6DBkAR26Mlj5V3qKI,36.6306733,44.4480604,3.4,"['restaurant', 'food', 'point_of_interest', 'establishment']",Soran - Khalifan Rd,2,9
270,مطعم ڤينوس,ChIJwX1gvTyDBkARTDlOnuJyRYg,36.6301191,44.4487152,0.0,"['restaurant', 'food', 'point_of_interest', 'establishment']",Soran - Khalifan Rd,2,0
271,B CAPITAL CAFE,ChIJwS0dGhcpBEARTsTJp0WEVTA,36.6469086,44.5402591,4.1,"['restaurant', 'food', 'point_of_interest', 'establishment']","JGWR+Q46, Kawa St, Soran",2,12
272,Kabab gazgir 2,ChIJlx8KvXgpBEARVfz3HKEk51E,36.6471826,44.5396857,0.0,"['restaurant', 'food', 'point_of_interest', 'establishment']","JGWQ+VVF, Kawa St, Soran",2,0
273,Doly Alana Resturant,ChIJN-qH1SCbBkARZ-FHdlfJN1c,36.5503814,44.4309885,4.5,"['restaurant', 'food', 'point_of_interest', 'establishment']",Erbil Governorate,2,20
274,Shinglbana Resturant,ChIJ-wfpq0OdBkARROwQzFPfaQc,36.6147185,44.5072929,0.0,"['restaurant', 'food', 'point_of_interest', 'establishment']","JG74+XWF ادارة اللعاب, Rawanduz",2,0
275,مطعم آرياس,ChIJ09ikxjmnBkARLPJh4EeQJMY,36.512221,44.76231910000001,3.5,"['restaurant', 'food', 'point_of_interest', 'establishment']",GQ66+VWP، شومان,2,11
276,مطعم بيخال,ChIJE-fXSPmDBkARhelfoRHleQY,36.6172281,44.4973359,4.2,"['restaurant', 'food', 'point_of_interest', 'establishment']","JF8W+VWW, Unnamed Road, Rawanduz",2,5
277,U S PIZZA,ChIJnfdTeg0pBEAR_j6anyC7pfk,36.6468453,44.54084599999999,0.0,"['restaurant', 'food', 'point_of_interest', 'establishment']","JGWR+P8V, Kawa St, Soran",2,0
278,Resturant Yusif Dargalay,ChIJjb3HbjmdBkAR-ymdTM2v218,36.614192,44.5278196,4.0,"['restaurant', 'food', 'point_of_interest', 'establishment']","JG7H+M4G, Rawanduz",2,122
279,Pizza bekhal,ChIJQ-YbH4YpBEARaw837KW-Z_k,36.6494153,44.5341432,0.0,"['restaurant', 'food', 'point_of_interest', 'establishment']","JGXM+QM6, Kawa St, Soran",2,0
280,pizza Milano,ChIJA2e41MopBEARNaGCzXGNgRw,36.6517162,44.54461389999999,3.4,"['restaurant', 'food', 'point_of_interest', 'establishment']","MG2V+MRQ, Unnamed Road, Soran",2,5
281,Yum Pizza,ChIJcS9E8t0pBEARNva5XgHvoRQ,36.649951,44.5248472,4.3,"['restaurant', 'food', 'point_of_interest', 'establishment']","MG2F+8JJ, Kawa St, Soran",2,4
282,Heidiland restaurant çêştxaneî heidiland,ChIJy-RQtW4pBEARl92ieNm1wnQ,36.6703462,44.5425495,5.0,"['restaurant', 'food', 'point_of_interest', 'establishment']","MGCR+4XQ, Unnamed Road, Soran",2,2
283,لحم بعجین بیخال,ChIJIS2XjGkpBEAR_ZXxXPgu9Hc,36.645882,44.5431869,3.0,"['restaurant', 'food', 'point_of_interest', 'establishment']","JGWV+973, Soran",2,2
284,مطعم دار التراث الكردي,ChIJNfFnKFeDBkAR2LCwYUBvdtE,36.6193777,44.4992765,4.1,"['restaurant', 'food', 'point_of_interest', 'establishment']","JF9X+QP2, Soran",2,9
285,Charchal burger,ChIJ5UtcZRYpBEAR09lqrlkI3Ms,36.6459321,44.5529859,0.0,"['restaurant', 'food', 'point_of_interest', 'establishment']","JHW3+96C, Soran",2,0
286,Night Burger,ChIJqxk5A-ApBEAR4SMv4le6k0o,36.6482266,44.537628,0.0,"['restaurant', 'food', 'point_of_interest', 'establishment']","JGXQ+73R, Kawa St, Soran",2,0
287,مطعم وسمك روبار,ChIJkwqSfXiFBkARJu0RSMvIoG0,36.5993575,44.4004615,4.0,"['restaurant', 'food', 'point_of_interest', 'establishment']","HCX2+WHM, Khalifan",2,1
288,خواردنگەی ابو شیار,ChIJ79aTyzidBkAREKhxZGjl6mk,36.6115315,44.5218218,0.0,"['restaurant', 'food', 'point_of_interest', 'establishment']","JG6C+JP8, Rawanduz",2,0
289,Daiyk Restaurant گەس و شاورمەی دایک,ChIJYVuM8WkoBEAR6M4ULzPVXE8,36.652249,44.544041,4.0,"['restaurant', 'food', 'point_of_interest', 'establishment']","MG2V+VJV, Soran",2,86
290,bazhina cafe,ChIJTS8T-qqDBkARsr9aCqhF8a4,36.6276959,44.432896,3.5,"['restaurant', 'food', 'point_of_interest', 'establishment']",Soran - Khalifan Rd,2,4
291,Bekhal Resturant,ChIJzzrilFCDBkARbtAYpVJuDo4,36.6172671,44.4973336,0.0,"['restaurant', 'food', 'point_of_interest', 'establishment']","Bekhal Waterfalls, Arbil",2,0
292,مطعم كورك,ChIJE3g9fiuDBkARdMcfj3cTY3s,36.616484,44.4973788,3.0,"['restaurant', 'food', 'point_of_interest', 'establishment']","JF8W+HXR, Unnamed Road, Rawanduz",2,2
293,دیڤان لایڤ,ChIJw-BBnZYpBEARQ4odPdytT2Y,36.6509241,44.5439604,5.0,"['restaurant', 'food', 'point_of_interest', 'establishment']","MG4Q+28F, MG2V+9JF, Soran",2,2
294,Swedish Pizza,ChIJJR_cdgQpBEARaR2cPOBVWLY,36.6477496,44.5385634,3.5,"['restaurant', 'food', 'point_of_interest', 'establishment']","JGXQ+3CW, Kawa St, Soran",2,45
295,Pizza D2,ChIJJzgrj6kpBEARf_V3go8_S-E,36.6491926,44.5294534,3.5,"['restaurant', 'food', 'point_of_interest', 'establishment']","JGXH+QH9 Opposite to, Hareeq street, Soran",2,2
296,Pizza Veniz,ChIJLwPPPUkpBEAR2codW8JOa7k,36.6578481,44.5394067,0.0,"['restaurant', 'food', 'point_of_interest', 'establishment']","MG5Q+5Q4, Unnamed Road, Soran",2,0
297,مطعم كلي علي بيك,ChIJbVwZZCaDBkAR0ITGfVKFryg,36.63129380000001,44.4472852,3.5,"['restaurant', 'food', 'point_of_interest', 'establishment']",Soran - Khalifan Rd,2,2
298,مصيف جنديان,ChIJr35_Ar0nBEAREAZJM6Swd5k,36.6269296,44.5739637,3.8,"['restaurant', 'food', 'point_of_interest', 'establishment']","JHGF+QHG, جنديان",2,49
299,Shilana Restaurant چێشتخانەی شیلانە,ChIJm8ntGV4fBEARSB7Cpq0ptgU,36.58488699999999,44.754446,4.0,"['restaurant', 'food', 'point_of_interest', 'establishment']","HQM3+XQ4, Dargala",2,6
300,Town Restaurant,ChIJzRcgntUpBEARlPYH5DFVzu0,36.6541997,44.5362022,4.2,"['restaurant', 'food', 'point_of_interest', 'establishment']",erbil,2,145
301,مطعم زيرينا السياحي,ChIJ9SbPxu2DBkARhKm37Z9R7yQ,36.613681,44.496267,3.7,"['restaurant', 'food', 'point_of_interest', 'establishment']","بيخال, Erbil",2,19
302,مطعم آرياس,ChIJ09ikxjmnBkARLPJh4EeQJMY,36.512221,44.76231910000001,3.5,"['restaurant', 'food', 'point_of_interest', 'establishment']",GQ66+VWP، شومان,2,11
303,Sulaimania Resturant,ChIJB1WVjUMoBEARnkam1c2v72s,36.655138,44.539759,3.9,"['restaurant', 'food', 'point_of_interest', 'establishment']","MG4Q+3W2، شەقامی جەنەراڵ بارزانی, Soran",2,90
304,قەلیە سێلی مەولانەRahmi usta,ChIJ2VPPLlMpBEARKgVciaAg9yw,36.6525725,44.54196169999999,3.0,"['restaurant', 'food', 'point_of_interest', 'establishment']","MG3R+3R4، شەقامی کومەلگای گەلالە, Soran",2,1
305,مطعم هيوا,ChIJ0a42uBOdBkAREiCG7N_mCUU,36.6039295,44.523741,3.4,"['restaurant', 'food', 'point_of_interest', 'establishment']","JG3F+HFH, Rawanduz",2,14
306,مطعم دار التراث الكردي,ChIJNfFnKFeDBkAR2LCwYUBvdtE,36.6193777,44.4992765,4.1,"['restaurant', 'food', 'point_of_interest', 'establishment']","JF9X+QP2, Soran",2,9
307,مطعم وسمك روبار,ChIJkwqSfXiFBkARJu0RSMvIoG0,36.5993575,44.4004615,4.0,"['restaurant', 'food', 'point_of_interest', 'establishment']","HCX2+WHM, Khalifan",2,1
308,مطعم فاتاوە چێشتخانەی فاتاوە Fattawa Restaurant,ChIJc5NXXlqTBkAR_UBu5voyONM,36.4827624,44.3804334,4.3,"['restaurant', 'food', 'point_of_interest', 'establishment']","F9MJ+453, Shaqlawa",2,47
309,گه ص هه ولير,ChIJKXWYY3QpBEARkJn0FHbPJIM,36.6549031,44.53983179999999,0.0,"['restaurant', 'food', 'point_of_interest', 'establishment']","MG3Q+XW8, Soran",2,0
310,Khalifan gate restaurant,ChIJcxfCiWSFBkARy5TnSCSbt60,36.5943516,44.3823462,2.8,"['restaurant', 'food', 'point_of_interest', 'establishment']","H9VJ+PWX, 3, Khalifan",2,5
311,Daiyk Restaurant گەس و شاورمەی دایک,ChIJYVuM8WkoBEAR6M4ULzPVXE8,36.652249,44.544041,4.0,"['restaurant', 'food', 'point_of_interest', 'establishment']","MG2V+VJV, Soran",2,86
312,خواردنگه ی کانیاوی بیخال,ChIJRahe3uiDBkARwqUBh2xAut8,36.6177448,44.4974855,5.0,"['restaurant', 'food', 'point_of_interest', 'establishment']",JF9W+3XX,2,2
313,مطعم بيخال,ChIJE-fXSPmDBkARhelfoRHleQY,36.6172281,44.4973359,4.2,"['restaurant', 'food', 'point_of_interest', 'establishment']","JF8W+VWW, Unnamed Road, Rawanduz",2,5
314,لحم بعجین بیخال,ChIJIS2XjGkpBEAR_ZXxXPgu9Hc,36.645882,44.5431869,3.0,"['restaurant', 'food', 'point_of_interest', 'establishment']","JGWV+973, Soran",2,2
315,گەس و شاورمە و کەبابی گەنجان,ChIJPYOA04MpBEARZUGoz_IKBFI,36.6522225,44.5440101,4.5,"['restaurant', 'food', 'point_of_interest', 'establishment']","MG2V+VJJ, Soran",2,11
316,مطعم كلي علي بيك,ChIJbVwZZCaDBkAR0ITGfVKFryg,36.63129380000001,44.4472852,3.5,"['restaurant', 'food', 'point_of_interest', 'establishment']",Soran - Khalifan Rd,2,2
317,Gas Tariq - لەفەی وەستا طارق,ChIJid-UuzeFBkAR5p9lR_hdZKI,36.6083953,44.4037881,4.2,"['restaurant', 'food', 'point_of_interest', 'establishment']","JC53+HQ8, Khalifan",2,41
318,مطحم دەروازەی خەلیفان,ChIJj3WKQk2FBkARilI85w-1A6M,36.5943485,44.3825589,3.0,"['restaurant', 'food', 'point_of_interest', 'establishment']","H9VM+M5F, Khalifan",2,3
319,resturant,ChIJK6GREuKFBkARf9hWg7i6ya0,36.6052308,44.4015972,4.0,"['restaurant', 'food', 'point_of_interest', 'establishment']","JC42+3JX, Soran - Khalifan Rd, Khalifan",2,1
320,ماسی بێرۆیان - سمك بيرويان,ChIJRfvlqwCdBkARGSYqKPfEN7I,36.5942116,44.5256386,4.7,"['restaurant', 'food', 'point_of_interest', 'establishment']","HGVG+M7J, Rawanduz",2,25
321,Taran Restaurant ڕێستۆرانتی تاران,ChIJmR-HuxGbBkARB_4TEXA_Dng,36.5517386,44.4313539,4.3,"['restaurant', 'food', 'point_of_interest', 'establishment']","Erbil Governorate, Rmawezh",2,10
322,مطعم جبل كورك,ChIJ3dUxOLqDBkARh-yn4feiBPA,36.5989375,44.4533125,4.0,"['restaurant', 'food', 'point_of_interest', 'establishment']","أربيل محافظة، HFX3+H88 خليفان, Rawanduz",2,17
323,روني,ChIJmRxJWVynBkARmQC-inOyOsg,36.501674,44.753697,0.0,"['restaurant', 'food', 'point_of_interest', 'establishment']","GQ23+MG6, Warte",2,0
324,لحم و پیتزای فاملی Family pizza,ChIJZ1TlwUspBEAR_uZbMLcezmE,36.6722703,44.54186360000001,4.5,"['restaurant', 'food', 'point_of_interest', 'establishment']","MGCR+WP5، جوتسایدی دێڵزیان, Soran",2,2
325,Top Fast Food,ChIJrXaWhbEpBEARUtjPJsRfzdA,36.6514968,44.54466619999999,4.1,"['restaurant', 'food', 'point_of_interest', 'establishment']","MG2V+HVV, Soran",2,26
326,Maldive restaurant,ChIJMTZcIGenBkARC1xvUJu-de4,36.5039337,44.7553175,5.0,"['restaurant', 'food', 'point_of_interest', 'establishment']","GQ34+G6H, Warte",2,1
327,Ciya Restaurant,ChIJV7ctdPSDBkARlSSGi8GaFuA,36.5988974,44.4585227,4.2,"['restaurant', 'food', 'point_of_interest', 'establishment']","HFX5+HC2, Soran",2,10
328,Astera restaurant,ChIJ076wtRyDBkAR7SfO4sfXqqA,36.6177125,44.4980638,0.0,"['restaurant', 'food', 'point_of_interest', 'establishment']","JF9X+95G, Rawanduz",2,0
329,مصيف بيخال,ChIJz4D0blKDBkARffNR2Md-fDo,36.618195,44.49865399999999,4.4,"['restaurant', 'food', 'point_of_interest', 'establishment']","JF9X+7FC, Rawanduz",2,119
330,مطعم ماسي,ChIJqzk3Kf2TBkARsoenDLrQgJo,36.4821165,44.38039089999999,1.0,"['restaurant', 'food', 'point_of_interest', 'establishment']",3,2,1
331,مطعم ڤينوس,ChIJwX1gvTyDBkARTDlOnuJyRYg,36.6301191,44.4487152,0.0,"['restaurant', 'food', 'point_of_interest', 'establishment']",Soran - Khalifan Rd,2,0
332,Gas and Shurma dm dm castle,ChIJg7YKof4pBEARBMBjYPO75Fg,36.6551417,44.5398,5.0,"['restaurant', 'food', 'point_of_interest', 'establishment']",MG4Q+3W3، شەقامی جەنەراڵ بارزانی، اشكتوان,2,1
333,لحم بعجین ڕوداو,ChIJ4QLfaZgpBEARj1yQjEN8Ni0,36.6547804,44.536411,4.0,"['restaurant', 'food', 'point_of_interest', 'establishment']","MG4P+2V2, Soran",2,1
334,مطعم زارگەلی,ChIJX0ruqdKDBkARenXhTY5INt0,36.6181384,44.4161084,0.0,"['restaurant', 'food', 'point_of_interest', 'establishment']","JC98+9FH, Khalifan",2,0
335,گازینۆ چێشخانەی ئەستێرە STAR Restaurant,ChIJ0Qp0mHaDBkARb4wO0F-sSGE,36.617389,44.4974053,4.8,"['restaurant', 'food', 'point_of_interest', 'establishment']","JF8W+XXH, Unnamed Road, Rawanduz",2,21
336,مصيف جنديان,ChIJr35_Ar0nBEAREAZJM6Swd5k,36.6269296,44.5739637,3.8,"['restaurant', 'food', 'point_of_interest', 'establishment']","JHGF+QHG, جنديان",2,49
337,مطعم وفندق شلال السياحي,ChIJyT4CLi6DBkAR26Mlj5V3qKI,36.6306733,44.4480604,3.4,"['restaurant', 'food', 'point_of_interest', 'establishment']",Soran - Khalifan Rd,2,9
338,Kazm Resturant & Kabab چێشتخانە و کەبابی کازم,ChIJ_XGjCjAoBEAREl9wbnP4w5U,36.6504728,44.5197251,4.2,"['restaurant', 'food', 'point_of_interest', 'establishment']","MG29+5VX, Soran",2,43
339,مطعم ئايان,ChIJ0Uoy00yDBkARtW9uMJkb04A,36.617427,44.4980123,4.0,"['restaurant', 'food', 'point_of_interest', 'establishment']","JF8X+X6C, Unnamed Road, Rawanduz",2,2
340,مطعم العاصمة,ChIJjfv4sO-dBkAR-iAdK4v0Axg,36.6089814,44.51363509999999,2.9,"['restaurant', 'food', 'point_of_interest', 'establishment']",JG57+JF، رواندز،,2,59
341,Two magical eye Rawah windows,ChIJGdtSKpInBEAR81BVvoubbgI,36.6260532,44.57386839999999,4.1,"['restaurant', 'food', 'point_of_interest', 'establishment']","JHGF+CGH, Soran",2,444
342,چێتخانەو کەبابی کانی ماران,ChIJC8ZcZ3WDBkARsELnIJYg7Ao,36.627877,44.4695499,3.8,"['restaurant', 'food', 'point_of_interest', 'establishment']","JFH9+5R, Soran",2,8
343,مطعم و فندق میگر السياحي,ChIJQbnWmjmdBkARLNHVmbOVDCA,36.6063477,44.509764,2.5,"['restaurant', 'food', 'point_of_interest', 'establishment']","JG45+GWC، Unnamed Road, Rawanduz",2,49
344,مطعم هەوارگەی بێخال Hawargai Bekhal restaurant,ChIJY8bPr0mdBkAREY85YeULk6k,36.606826,44.4934794,0.0,"['restaurant', 'food', 'point_of_interest', 'establishment']","JF4V+XM7, Soran",2,0
345,مطعم كورك,ChIJE3g9fiuDBkARdMcfj3cTY3s,36.616484,44.4973788,3.0,"['restaurant', 'food', 'point_of_interest', 'establishment']","JF8W+HXR, Unnamed Road, Rawanduz",2,2
346,كباب ظاهر,ChIJtSmaDs8pBEARWahhA4h54wA,36.6641883,44.5485339,0.0,"['restaurant', 'food', 'point_of_interest', 'establishment']","MG7X+FCM, Soran",2,0
347,لحم بالعجین و البیزا,ChIJtwmqHDU1BEARj0SWg41j7yE,36.8005514,44.6681994,4.0,"['restaurant', 'food', 'point_of_interest', 'establishment']",جووت سایدی سیدەکان Soran 1.5,2,6
348,سةمىوونخانةي بالةكايةتي,ChIJzYbqzmMpBEARzAu0pFgHrJY,36.6537035,44.5431142,0.0,"['restaurant', 'food', 'point_of_interest', 'establishment']","MG3V+F98, 3, Soran",2,0
349,Resturant balakieaty,ChIJ6SN7QsYZBEAR_OKju34SuqE,36.5888078,44.7900405,3.0,"['restaurant', 'food', 'point_of_interest', 'establishment']","Rezan-رێزان, Razan",2,2
350,Darwesh Kabab & Resturant,ChIJbxZn8lcoBEARbSoxMKb4O1E,36.6637248,44.54578069999999,4.2,"['restaurant', 'food', 'point_of_interest', 'establishment']","MG7W+F8J, Soran",2,107
351,DIARBAKER RESTAUANT,ChIJ08E-xT8pBEARhOCLkspsUsE,36.6546958,44.5378078,5.0,"['restaurant', 'food', 'point_of_interest', 'establishment']","MG3Q+V4F, Soran",2,1
352,KM fastfood,ChIJ7aTqHLApBEARkXleJgHXUF0,36.6709688,44.53592580000001,0.0,"['restaurant', 'food', 'point_of_interest', 'establishment']","MGCP+CC2, Soran",2,0
353,King Bond,ChIJRzvarOcpBEARHZKtPdmr2NI,36.646562,44.5531008,3.2,"['restaurant', 'food', 'point_of_interest', 'establishment']","JHW3+J6H، Unnamed Road, Soran",2,5
354,مطعم وكازينو كاني,ChIJ9YdAFACDBkAROz8pYrm3xpQ,36.6178718,44.4975421,0.0,"['restaurant', 'food', 'point_of_interest', 'establishment']","JF9X+42V, Soran",2,0
355,HAWARGAY ALANA هةواركةى ئالانة,ChIJa_tcznOFBkARDnhMLhMw3wU,36.5985929,44.4037724,3.9,"['restaurant', 'food', 'point_of_interest', 'establishment']",HCX3+CGJ، خليفان،,2,31
356,Koki fast food,ChIJzzsaLNkpBEARK-PZjvj7KJo,36.6546958,44.5378078,0.0,"['restaurant', 'food', 'point_of_interest', 'establishment']","MG3Q+V4F, Soran",2,0
357,Sabah food,ChIJZVvarWApBEARhVawsmgwz_w,36.6709556,44.53604379999999,0.0,"['restaurant', 'food', 'point_of_interest', 'establishment']","MGCP+99X, Soran",2,0
358,Yum Pizza,ChIJcS9E8t0pBEARNva5XgHvoRQ,36.649951,44.5248472,4.3,"['restaurant', 'food', 'point_of_interest', 'establishment']","MG2F+8JJ, Kawa St, Soran",2,4
359,مطعم ئاراس,ChIJIT-Qr3MpBEAR16GPz4O3tMw,36.6553414,44.5405034,3.8,"['restaurant', 'food', 'point_of_interest', 'establishment']","MG4R+46C, 3, Soran",2,5
360,دیڤان لایڤ,ChIJw-BBnZYpBEARQ4odPdytT2Y,36.6509241,44.5439604,5.0,"['restaurant', 'food', 'point_of_interest', 'establishment']","MG4Q+28F, MG2V+9JF, Soran",2,2
361,كباب ظاهر,ChIJtSmaDs8pBEARWahhA4h54wA,36.6641883,44.5485339,0.0,"['restaurant', 'food', 'point_of_interest', 'establishment']","MG7X+FCM, Soran",2,0
362,Koki fast food,ChIJzzsaLNkpBEARK-PZjvj7KJo,36.6546958,44.5378078,0.0,"['restaurant', 'food', 'point_of_interest', 'establishment']","MG3Q+V4F, Soran",2,0
363,روني,ChIJmRxJWVynBkARmQC-inOyOsg,36.501674,44.753697,0.0,"['restaurant', 'food', 'point_of_interest', 'establishment']","GQ23+MG6, Warte",2,0
364,Sabah food,ChIJZVvarWApBEARhVawsmgwz_w,36.6709556,44.53604379999999,0.0,"['restaurant', 'food', 'point_of_interest', 'establishment']","MGCP+99X, Soran",2,0
365,Gas Tariq - لەفەی وەستا طارق,ChIJid-UuzeFBkAR5p9lR_hdZKI,36.6083953,44.4037881,4.2,"['restaurant', 'food', 'point_of_interest', 'establishment']","JC53+HQ8, Khalifan",2,41
366,گه ص هه ولير,ChIJKXWYY3QpBEARkJn0FHbPJIM,36.6549031,44.53983179999999,0.0,"['restaurant', 'food', 'point_of_interest', 'establishment']","MG3Q+XW8, Soran",2,0
367,هات فووت Hat Food,ChIJrzVnAAUpBEARzWvp0vCM8WQ,36.6491355,44.5351799,0.0,"['restaurant', 'food', 'point_of_interest', 'establishment']","JGXP+M33, Soran",2,0
368,Top Fast Food,ChIJrXaWhbEpBEARUtjPJsRfzdA,36.6514968,44.54466619999999,4.1,"['restaurant', 'food', 'point_of_interest', 'establishment']","MG2V+HVV, Soran",2,26
369,مطعم العاصمة,ChIJjfv4sO-dBkAR-iAdK4v0Axg,36.6089814,44.51363509999999,2.9,"['restaurant', 'food', 'point_of_interest', 'establishment']",JG57+JF، رواندز،,2,59
370,KM fastfood,ChIJ7aTqHLApBEARkXleJgHXUF0,36.6709688,44.53592580000001,0.0,"['restaurant', 'food', 'point_of_interest', 'establishment']","MGCP+CC2, Soran",2,0
371,صیاحیة ورتی,ChIJL8rZO6mnBkAR2aOWb0TtfKE,36.5055558,44.7589482,4.3,"['restaurant', 'food', 'point_of_interest', 'establishment']",GQ45+6HG، سۆران،,2,6
372,لحم بعجین بیخال,ChIJIS2XjGkpBEAR_ZXxXPgu9Hc,36.645882,44.5431869,3.0,"['restaurant', 'food', 'point_of_interest', 'establishment']","JGWV+973, Soran",2,2
373,لحم بعجین ڕوداو,ChIJ4QLfaZgpBEARj1yQjEN8Ni0,36.6547804,44.536411,4.0,"['restaurant', 'food', 'point_of_interest', 'establishment']","MG4P+2V2, Soran",2,1
374,Gas and Shurma dm dm castle,ChIJg7YKof4pBEARBMBjYPO75Fg,36.6551417,44.5398,5.0,"['restaurant', 'food', 'point_of_interest', 'establishment']",MG4Q+3W3، شەقامی جەنەراڵ بارزانی، اشكتوان,2,1
375,مالي ئاغا,ChIJQRsgh5opBEARGeo10IeBgGg,36.651595,44.5444302,0.0,"['restaurant', 'food', 'point_of_interest', 'establishment']","MG2V+HVV, Soran",2,0
376,pashae gawra,ChIJkcGOMYspBEARul7-mv0MW0k,36.6546958,44.5378078,0.0,"['restaurant', 'food', 'point_of_interest', 'establishment']","MG3Q+V4F, Soran",2,0
377,سوپەرمارکێتی کاروان,ChIJPx3cWxvTBUARKpfj1XHyDTM,36.79757240000001,44.4415087,0.0,"['restaurant', 'food', 'point_of_interest', 'establishment']",QCXR+2JC، عين سفني،,2,0
378,Resort &cafe sound Bekhal,ChIJGWrfkDODBkARbVNjVnAA-zI,36.6185678,44.4981643,0.0,"['restaurant', 'food', 'point_of_interest', 'establishment']","JF9X+95G, Rawanduz",2,0
379,مطعم سؤران,ChIJYa6eDuwpBEARsPTZ66MyxsU,36.6558184,44.5408997,0.0,"['restaurant', 'food', 'point_of_interest', 'establishment']","MG4R+89C, 3, Soran",2,0
380,مطعم هيوا,ChIJ0a42uBOdBkAREiCG7N_mCUU,36.6039295,44.523741,3.4,"['restaurant', 'food', 'point_of_interest', 'establishment']","JG3F+HFH, Rawanduz",2,14
381,King Bond,ChIJRzvarOcpBEARHZKtPdmr2NI,36.646562,44.5531008,3.2,"['restaurant', 'food', 'point_of_interest', 'establishment']","JHW3+J6H، Unnamed Road, Soran",2,5
382,رستورانت بالک,ChIJz1A6IwKDBkARLWxJbsTTlck,36.6269546,44.4626899,0.0,"['restaurant', 'food', 'point_of_interest', 'establishment']","JFG7+Q3P, Soran",2,0
383,چێشتخانەی هەولێر,ChIJS8_dO6ApBEAR_5_79_K6nGo,36.6552919,44.5401925,5.0,"['restaurant', 'food', 'point_of_interest', 'establishment']","MG4R+42W, 3, Soran",2,1
384,مطعم زيرينا السياحي,ChIJ9SbPxu2DBkARhKm37Z9R7yQ,36.613681,44.496267,3.7,"['restaurant', 'food', 'point_of_interest', 'establishment']","بيخال, Erbil",2,19
385,resturant,ChIJK6GREuKFBkARf9hWg7i6ya0,36.6052308,44.4015972,4.0,"['restaurant', 'food', 'point_of_interest', 'establishment']","JC42+3JX, Soran - Khalifan Rd, Khalifan",2,1
386,لحم و پیتزای فاملی Family pizza,ChIJZ1TlwUspBEAR_uZbMLcezmE,36.6722703,44.54186360000001,4.5,"['restaurant', 'food', 'point_of_interest', 'establishment']","MGCR+WP5، جوتسایدی دێڵزیان, Soran",2,2
387,مطعم وسمك روبار,ChIJkwqSfXiFBkARJu0RSMvIoG0,36.5993575,44.4004615,4.0,"['restaurant', 'food', 'point_of_interest', 'establishment']","HCX2+WHM, Khalifan",2,1
388,Daiyk Restaurant گەس و شاورمەی دایک,ChIJYVuM8WkoBEAR6M4ULzPVXE8,36.652249,44.544041,4.0,"['restaurant', 'food', 'point_of_interest', 'establishment']","MG2V+VJV, Soran",2,86
389,HAWARGAY ALANA هةواركةى ئالانة,ChIJa_tcznOFBkARDnhMLhMw3wU,36.5985929,44.4037724,3.9,"['restaurant', 'food', 'point_of_interest', 'establishment']",HCX3+CGJ، خليفان،,2,31
390,مطعم گەس خلیفان,ChIJ70FJEeSFBkARfV-KOSjZN2w,36.6066435,44.4021653,0.0,"['restaurant', 'food', 'point_of_interest', 'establishment']","JC42+JQQ, Soran - Khalifan Rd, Khalifan",2,0
391,گەس هونەری خەلیفان,ChIJQwTXmYaFBkARdgVve8LW2DI,36.6111546,44.40707279999999,4.0,"['restaurant', 'food', 'point_of_interest', 'establishment']","JC64+H5R, Khalifan",2,15
392,Khalifan gate restaurant,ChIJcxfCiWSFBkARy5TnSCSbt60,36.5943516,44.3823462,2.8,"['restaurant', 'food', 'point_of_interest', 'establishment']","H9VJ+PWX, 3, Khalifan",2,5
393,مطعم وفندق شلال السياحي,ChIJyT4CLi6DBkAR26Mlj5V3qKI,36.6306733,44.4480604,3.4,"['restaurant', 'food', 'point_of_interest', 'establishment']",Soran - Khalifan Rd,2,9
394,Pizza you,ChIJcdiXH0ApBEAR3KfXPQLtXaQ,36.649549,44.54699799999999,0.0,"['restaurant', 'food', 'point_of_interest', 'establishment']","JGXW+QRG, Soran",2,0
395,Pizza Veniz,ChIJLwPPPUkpBEAR2codW8JOa7k,36.6578481,44.5394067,0.0,"['restaurant', 'food', 'point_of_interest', 'establishment']","MG5Q+5Q4, Unnamed Road, Soran",2,0
396,كباب وستا جمال,ChIJldnj7WMpBEAReR0lRmDgVyM,36.6505477,44.5182085,5.0,"['restaurant', 'food', 'point_of_interest', 'establishment']","MG29+678, Soran",2,1
397,xarand cafe,ChIJo0HlMt6dBkARWr-7J-hEU4w,36.6130082,44.52765429999999,4.3,"['cafe', 'store', 'food', 'point_of_interest', 'establishment']","JG7H+632, Rawanduz",2,40
398,KING CAFE,ChIJj6k2OHQpBEARz_P55o00lsQ,36.6418946,44.5429901,4.2,"['cafe', 'store', 'food', 'point_of_interest', 'establishment']","JGRV+Q55, Riwandiz-Soran Road, Soran",2,29
399,خانەی فەرھەنگیی شین Sheen bookcafe,ChIJW8181XYpBEARW-kfvJxWEZs,36.6538764,44.54112600000001,4.7,"['cafe', 'food', 'point_of_interest', 'establishment']","MG3R+77C, Soran",2,10
400,CAFE SHETNA,ChIJuaV2Pr_TBUARoGzVh2N0BLs,36.7843942,44.441498,0.0,"['cafe', 'store', 'food', 'point_of_interest', 'establishment']",شيتنه،,2,0
401,phlox cafe,ChIJ_4Nit74pBEARU6T_Au-BcIs,36.6467658,44.5404162,5.0,"['cafe', 'store', 'food', 'point_of_interest', 'establishment']","JGWR+M5R, Kawa St, Soran",2,2
402,GoldCafe,ChIJAb7BFgopBEARg1yqBKcfTSs,36.64111949999999,44.5573034,4.3,"['cafe', 'food', 'point_of_interest', 'establishment']","JHR4+FX6, 3, Soran",2,7
403,Classic Cafe,ChIJHYcey2aEBkAR9XUE7FvjvdI,36.607182,44.4022,5.0,"['cafe', 'food', 'point_of_interest', 'establishment']","JC42+VVG, Khalifan",2,1
404,Xarand Cafe,ChIJbUz7GR2dBkARggBP-Xql9tU,36.6085421,44.5238706,0.0,"['cafe', 'store', 'food', 'point_of_interest', 'establishment']","JG5F+CG9, Rawanduz",2,0
405,Khalifan caffè,ChIJdYg3X0OFBkAR024mWUYIbhg,36.599845,44.4014112,3.3,"['cafe', 'food', 'point_of_interest', 'establishment']","HCX2+WHM, Khalifan",2,7
406,Rose cafe,ChIJuREvgIwpBEARe0_TlMEGxb8,36.6485836,44.5349458,2.0,"['cafe', 'store', 'food', 'point_of_interest', 'establishment']","JGXP+F3P, Kawa St, Soran",2,1
407,Royal Cafe-Soran,ChIJfZ1_XBYpBEARLhzYgPsAFmQ,36.6499244,44.52483660000001,0.0,"['cafe', 'store', 'food', 'point_of_interest', 'establishment']","Kawe Street, Soran",2,0
408,Mard Caffe,ChIJB0gYdnoZBEARttkpUOUkoko,36.5966221,44.8162284,5.0,"['cafe', 'food', 'point_of_interest', 'establishment']","HRW8+JFX, Choman",2,2
409,Kaya Cafe,ChIJQRxuHiwpBEAR_NSMJCw0R4o,36.6496116,44.5141518,1.0,"['cafe', 'store', 'food', 'point_of_interest', 'establishment']","JGX7+VJ9, Road, Soran",2,1
410,مذاق البن,ChIJ8a8UsAspBEARkBHE7KaHGx4,36.6465183,44.5413019,0.0,"['cafe', 'food', 'point_of_interest', 'establishment']","JGWR+HGM, Soran",2,0
411,Blue cafe,ChIJcYsJqmspBEARTKc4U_qZ5hU,36.6467415,44.5403928,0.0,"['cafe', 'food', 'point_of_interest', 'establishment']","JGWR+M5R, Hariq, Soran",2,0
412,Almas cafe,ChIJU6GDVwgpBEAREnIORUnIlZw,36.660958,44.544073,0.0,"['cafe', 'food', 'point_of_interest', 'establishment']","MG6V+9JX, Unnamed Road, Soran",2,0
413,ross cafe,ChIJjQ0u0nMnBEARDmyabaFUPrg,36.6321238,44.5589644,0.0,"['cafe', 'store', 'food', 'point_of_interest', 'establishment']","JHJ5+RH Gulan park - پاڕکی گوڵان, Soran",2,0
414,canada cafe,ChIJDU0n8s8pBEARfpQ_FcrADUo,36.6489722,44.5475117,0.0,"['cafe', 'food', 'point_of_interest', 'establishment']","JGXX+H2J, 3, Soran",2,0
415,Yaran cafe,ChIJuRArXxQoBEAR-4A78uJoXpA,36.6474368,44.53881759999999,3.7,"['cafe', 'food', 'point_of_interest', 'establishment']","JGWQ+XGG, Soran",2,25
416,Resha Cafi,ChIJ-UJJZ4ObBkARik4XavnRhpI,36.55024239999999,44.4314416,0.0,"['cafe', 'food', 'point_of_interest', 'establishment']",HC2J+3HW,2,0
417,Golden coffe,ChIJI5btxFyDBkARdcJDZAdua5E,36.647321,44.5042358,4.0,"['cafe', 'point_of_interest', 'food', 'establishment']","JGW3+WMH, 3, Soran",2,3
418,Venecia Cafe,ChIJBwPpz96dBkARwQmm0IO3YyY,36.6096946,44.5249868,4.6,"['cafe', 'point_of_interest', 'food', 'establishment']","JG5G+R2Q, Rawanduz",2,14
419,Milano Cafe,ChIJm1Lff2CEBkARCnqhzfyoBSY,36.6043749,44.4013846,4.0,"['cafe', 'point_of_interest', 'food', 'establishment']","JC32+PHR Fire Station, Soran Khalifan Rd, Khalifan",2,7
420,کافه شاهانه,ChIJ7YO1ymsoBEARYdHG3XO-2CQ,36.6507237,44.544034,3.8,"['cafe', 'point_of_interest', 'food', 'establishment']","MG2V+7JM, Peshawa Qazi (Great Leader) St, Soran",2,20
421,Hazhay Gali Coffe || کافتریای هاژەی گەلی,ChIJsa39FweDBkARc2028m4uveo,36.6480299,44.498302,0.0,"['cafe', 'point_of_interest', 'food', 'establishment']","JFXX+687, سۆران،",2,0
422,Yallda Cafe,ChIJm_tXyradBkARFRf0upqC3Sw,36.6099033,44.52219669999999,3.2,"['cafe', 'point_of_interest', 'food', 'establishment']","JG5C+XV8, Rawanduz",2,19
423,کافتریای پێشمەرگە,ChIJoZ3Roj8pBEARJMhF5ARK2w0,36.6546958,44.5378078,0.0,"['cafe', 'point_of_interest', 'store', 'food', 'establishment']","MG3Q+V4F, Soran",2,0
424,Diamond Cafe & Rest,ChIJo6hDBFEpBEAR0cqPM84VdCM,36.6494153,44.5341432,4.0,"['cafe', 'point_of_interest', 'food', 'establishment']","JGXM+QM6, Kawa St (Hareeq, Soran",2,3
425,Bloom cafe,ChIJRXYD-FspBEAR1TDscLTsMbo,36.6491033,44.5478912,3.0,"['cafe', 'point_of_interest', 'food', 'establishment']","JGXX+J5R, Soran",2,1
426,asal coffee,ChIJccfGOG8pBEARqignIXh9qEk,36.6703057,44.5428031,3.8,"['cafe', 'point_of_interest', 'food', 'establishment']","MGCV+44F, Soran",2,6
427,Black Cafe,ChIJW-vdLfwpBEARqaVhD9ZJIlo,36.648335,44.537174,0.0,"['cafe', 'point_of_interest', 'food', 'establishment']","JGXQ+954, Soran",2,0
428,Ganjan Cafe,ChIJXw0XGLopBEARAZidzwZz3H0,36.6692785,44.5334934,4.7,"['cafe', 'point_of_interest', 'food', 'establishment']","MG9M+P99, Unnamed Road, Soran",2,3
429,caffe,ChIJpzMeT_0pBEARDt1Uw1j67lk,36.6635236,44.5516963,0.0,"['cafe', 'point_of_interest', 'store', 'food', 'establishment']","soran road arbil iraq/arbil, Soran",2,0
430,Soran Game zone cafe,ChIJh8lj9ZEpBEARs4Ao87EW9lI,36.6469169,44.5409724,0.0,"['cafe', 'point_of_interest', 'food', 'establishment']","JGWR+Q99, Kawa St, Soran",2,0
431,چایخانەی رەسەن,ChIJ33lzV2MpBEARY74Bjkw7tjI,36.6559375,44.5433125,3.5,"['cafe', 'point_of_interest', 'food', 'establishment']",Soran,2,4
432,OLIVETTO,ChIJE0g7cvidBkARBOhOXbFa6Vk,36.61355289999999,44.5278727,4.0,"['cafe', 'point_of_interest', 'food', 'establishment']","JG7G+9WQ, Rawanduz",2,2
433,Nutella,ChIJ5-4ZOBUpBEARauJBUTm7L0E,36.6469535,44.54025559999999,4.3,"['cafe', 'point_of_interest', 'store', 'food', 'establishment']","JGWR+Q4J, Kawa St, Soran",2,4
434,Mam rahim cafe,ChIJQR6B9kopBEARUrR18qCGip8,36.6523437,44.543466,3.3,"['cafe', 'point_of_interest', 'food', 'establishment']","MG2V+W9P, Soran",2,4
435,Haval Cafe,ChIJk1YMiAU1BEARxbXFzwHwnxY,36.7992205,44.6701292,5.0,"['cafe', 'point_of_interest', 'store', 'food', 'establishment']","QMXC+M3, Bola",2,2
436,چایخانەی کلتوری سۆران 2,ChIJD3phjRgpBEARgb4Pb8tA7_Y,36.6469489,44.5404005,4.0,"['cafe', 'point_of_interest', 'food', 'establishment']","JGWR+Q5C, Kawa St, Soran",2,1
437,Meer Cafe,ChIJX2JYTjUpBEARxWkDdGeowq4,36.6604569,44.5495136,0.0,"['cafe', 'food', 'point_of_interest', 'establishment']","MG6X+5RJ, Soran",2,0
438,waar cafe,ChIJz_MgHygpBEARdfKT0M41L2w,36.6578859,44.5432127,5.0,"['cafe', 'store', 'food', 'point_of_interest', 'establishment']","MG5V+574, Soran",2,1
439,𝑪𝒐𝒇𝒇𝒆 𝑺𝒂𝑾𝒂𝑩,ChIJyWos2uY1BEAREGq5Hmdy_rk,36.8050538,44.6507845,2.3,"['cafe', 'store', 'food', 'point_of_interest', 'establishment']","RM42+28F, Sidakan",2,3
440,Pasha Cafe,ChIJR_X06f81BEARX1p--lLGxaY,36.7989365,44.6704815,0.0,"['cafe', 'food', 'point_of_interest', 'establishment']","Sidakan, Soran",2,0
441,Milan Cafe,ChIJca6uFuopBEAR5jVTgYGel0M,36.6520984,44.537013,4.6,"['cafe', 'food', 'point_of_interest', 'establishment']",MG2P+RRV، شەقامی کومەلگای گەلالە،، سوران،,2,5
442,کافی شەوانی خەلیفان,ChIJlRhQDkKFBkAR7wdJKevP5yU,36.6164092,44.41080660000001,4.0,"['cafe', 'food', 'point_of_interest', 'establishment']","JC86+H87, Soran - Khalifan Rd, Khalifan",2,6
443,Pasha Cafe,ChIJr6pUKSo1BEAROxUbqFOUoWE,36.8053185,44.6499375,5.0,"['cafe', 'food', 'point_of_interest', 'establishment']","RJ4X+4XF, Soran",2,3
444,Time coffee,ChIJO0MSFd8pBEAR3qma-3jp1tw,36.670241,44.54259880000001,3.7,"['cafe', 'store', 'food', 'point_of_interest', 'establishment']","MGCV+32X, Soran",2,6
445,کافه تریا روژ,ChIJVSZMfacpBEARjnPm91qtac4,36.6480262,44.5048274,0.0,"['cafe', 'food', 'point_of_interest', 'establishment']","JGX3+6W8, 3, Soran",2,0
446,milano coffee,ChIJ2a_RWdwpBEAR_FJlOaH1x_M,36.6498223,44.5463412,3.5,"['cafe', 'store', 'food', 'point_of_interest', 'establishment']","JGXW+WGG, Soran",2,16
447,waar cafe,ChIJkQ3MrTiDBkARK0lTBRT24To,36.6276495,44.4507302,0.0,"['cafe', 'food', 'point_of_interest', 'establishment']",Erbil - Soran Rd,2,0
448,Cafe Kok,ChIJq6qqqkYoBEARYk8CYhCdvdM,36.6546958,44.5378078,3.5,"['cafe', 'food', 'point_of_interest', 'establishment']","MG3Q+V4F, Soran",2,11
449,Dragon cafe & Game center,ChIJc9szwRgpBEARzbpNuoHhpis,36.6490914,44.5307745,4.2,"['cafe', 'food', 'point_of_interest', 'establishment']","JGXJ+X33, Soran",2,13
450,چایخانەی کلتوری سۆران,ChIJtc3yEtgpBEARmZIfjkihM78,36.6541438,44.54268400000001,4.4,"['cafe', 'store', 'food', 'point_of_interest', 'establishment']","MG3V+M33, Soran",2,5
451,عسل کافي,ChIJ3eXyHY4pBEARBSMIWYO_s8c,36.6703041,44.5429626,0.0,"['cafe', 'food', 'point_of_interest', 'establishment']","MGCV+45G, Soran",2,0
452,sardamane kosar,ChIJ2yf4tTydBkARVa17s5TCkLw,36.6104027,44.52543499999999,4.0,"['cafe', 'food', 'point_of_interest', 'establishment']","JG6G+556, Rawanduz",2,23
453,Game Hall of shinglbana,ChIJDStFgiydBkARBlfXDuplut0,36.6143544,44.5066684,4.2,"['cafe', 'store', 'food', 'point_of_interest', 'establishment']","Shingelbana Resort, Rawanduz",2,437
454,Grde xama,ChIJSSy4CBopBEARZnJCw27A-Co,36.6453216,44.53425850000001,5.0,"['cafe', 'food', 'point_of_interest', 'establishment']","JGWM+4PC, Soran",2,2
455,koshki.xarand,ChIJxeobhoSdBkARLN76A2316L4,36.6180177,44.5335423,0.0,"['cafe', 'store', 'food', 'point_of_interest', 'establishment']","JG9M+6C3, Rawanduz",2,0
456,Soran game zone,ChIJP_GKPOgpBEAR4lW8-knVEZI,36.6546958,44.5378078,0.0,"['cafe', 'food', 'point_of_interest', 'establishment']","MG3Q+V4F, Soran",2,0
457,ABC restoran,ChIJL46UUrhFUxUR28C7rVhXFy4,35.7612135,43.6021431,5.0,"['restaurant', 'food', 'point_of_interest', 'establishment']","QJ62+FVJ, Makhmur",2,1
458,Diyar kawa,ChIJaZZHu0FPUxURwTmE27dbKzE,35.7826116,43.5792234,5.0,"['restaurant', 'food', 'point_of_interest', 'establishment']",QHMJ+44، مخمور،،,2,1
459,خواردنگەی مەردان(گص مردان),ChIJrWzgPhtFUxUR2RBJJexVzeo,35.7748396,43.5772804,4.0,"['restaurant', 'food', 'point_of_interest', 'establishment']","مزگه‌وتی سپی مه‌خموور،, مخمور،",2,25
460,خواردنگەی شاخەوان,ChIJp-Pmt1BPUxUR51ygl4QTssg,35.7826474,43.5793778,3.0,"['restaurant', 'food', 'point_of_interest', 'establishment']",QHMJ+44، مخمور،،,2,1
461,مطعم قرجوغ,ChIJA7J-R71FUxUROp86sbpE_3I,35.7749539,43.5810196,4.0,"['restaurant', 'food', 'point_of_interest', 'establishment']","QHFJ+XCJ، اربيل ، مخمور،, كزران, Makhmur",2,8
462,مطعم كباب نديناوه,ChIJD67yw_1VB0ARxoO13Ehg3D0,35.8837929,43.7855414,4.0,"['restaurant', 'food', 'point_of_interest', 'establishment']",ڕێگا ی که رکوک بۆ مو صڵ,2,1
463,كص نازه ن نوى,ChIJ3xFGoSdFUxURCmIAjMtErn8,35.7751367,43.5777362,4.3,"['restaurant', 'food', 'point_of_interest', 'establishment']","QHGH+335، شارع سوق, Makhmur",2,4
464,خواردنگەی ژیندار,ChIJ4ZUeA2NVB0ARCcE-fwIDpUA,35.8757309,43.80850909999999,5.0,"['restaurant', 'food', 'point_of_interest', 'establishment']","VRG5+79, Dibagah",2,1
465,مطعم كباب نديناوه,ChIJD67yw_1VB0ARxoO13Ehg3D0,35.8837929,43.7855414,4.0,"['restaurant', 'food', 'point_of_interest', 'establishment']",ڕێگا ی که رکوک بۆ مو صڵ,2,1
466,مطعم قرجوغ,ChIJA7J-R71FUxUROp86sbpE_3I,35.7749539,43.5810196,4.0,"['restaurant', 'food', 'point_of_interest', 'establishment']","QHFJ+XCJ، اربيل ، مخمور،, كزران, Makhmur",2,8
467,كص نازه ن نوى,ChIJ3xFGoSdFUxURCmIAjMtErn8,35.7751367,43.5777362,4.3,"['restaurant', 'food', 'point_of_interest', 'establishment']","QHGH+335، شارع سوق, Makhmur",2,4
468,خواردنگەی شاخەوان,ChIJp-Pmt1BPUxUR51ygl4QTssg,35.7826474,43.5793778,3.0,"['restaurant', 'food', 'point_of_interest', 'establishment']",QHMJ+44، مخمور،،,2,1
469,ABC restoran,ChIJL46UUrhFUxUR28C7rVhXFy4,35.7612135,43.6021431,5.0,"['restaurant', 'food', 'point_of_interest', 'establishment']","QJ62+FVJ, Makhmur",2,1
470,Diyar kawa,ChIJaZZHu0FPUxURwTmE27dbKzE,35.7826116,43.5792234,5.0,"['restaurant', 'food', 'point_of_interest', 'establishment']",QHMJ+44، مخمور،،,2,1
471,خواردنگەی ژیندار,ChIJ4ZUeA2NVB0ARCcE-fwIDpUA,35.8757309,43.80850909999999,5.0,"['restaurant', 'food', 'point_of_interest', 'establishment']","VRG5+79, Dibagah",2,1
472,خواردنگەی مەردان(گص مردان),ChIJrWzgPhtFUxUR2RBJJexVzeo,35.7748396,43.5772804,4.0,"['restaurant', 'food', 'point_of_interest', 'establishment']","مزگه‌وتی سپی مه‌خموور،, مخمور،",2,25
473,ABC restoran,ChIJL46UUrhFUxUR28C7rVhXFy4,35.7612135,43.6021431,5.0,"['restaurant', 'point_of_interest', 'food', 'establishment']","QJ62+FVJ, Makhmur",2,1
474,Diyar kawa,ChIJaZZHu0FPUxURwTmE27dbKzE,35.7826116,43.5792234,5.0,"['restaurant', 'point_of_interest', 'food', 'establishment']",QHMJ+44، مخمور،،,2,1
475,خواردنگەی ژیندار,ChIJ4ZUeA2NVB0ARCcE-fwIDpUA,35.8757309,43.80850909999999,5.0,"['restaurant', 'point_of_interest', 'food', 'establishment']","VRG5+79, Dibagah",2,1
476,مطعم كباب نديناوه,ChIJD67yw_1VB0ARxoO13Ehg3D0,35.8837929,43.7855414,4.0,"['restaurant', 'point_of_interest', 'food', 'establishment']",ڕێگا ی که رکوک بۆ مو صڵ,2,1
477,كص نازه ن نوى,ChIJ3xFGoSdFUxURCmIAjMtErn8,35.7751367,43.5777362,4.3,"['restaurant', 'point_of_interest', 'food', 'establishment']","QHGH+335، شارع سوق, Makhmur",2,4
478,خواردنگەی شاخەوان,ChIJp-Pmt1BPUxUR51ygl4QTssg,35.7826474,43.5793778,3.0,"['restaurant', 'point_of_interest', 'food', 'establishment']",QHMJ+44، مخمور،،,2,1
479,Dibaga Restaurant,ChIJq90qahdUB0AR-vPkHBFZOBk,35.8837673,43.7842261,3.4,"['point_of_interest', 'establishment']","VQMM+FMX, Dibagah",2,58
480,مطعم مخدة,ChIJLyf9QVhVB0ARx4CZl-gJAak,35.8740261,43.8083749,0.0,"['point_of_interest', 'food', 'establishment']",VRF5+J89، دباجة،,2,0
481,خواردنگەی مەردان(گص مردان),ChIJrWzgPhtFUxUR2RBJJexVzeo,35.7748396,43.5772804,4.0,"['restaurant', 'point_of_interest', 'food', 'establishment']","مزگه‌وتی سپی مه‌خموور،, مخمور،",2,25
482,محل أبو وليد,ChIJT1RXsJs7UxURABh8o-DB4NQ,35.8556603,43.379307,4.0,"['grocery_or_supermarket', 'point_of_interest', 'store', 'food', 'establishment']",V94H+6P السلطان، عبدالله،,2,1
483,محل توفيق,ChIJGy-zlHc7UxURmHPD607cMEI,35.8585766,43.3768138,3.5,"['grocery_or_supermarket', 'point_of_interest', 'store', 'food', 'establishment']",V95G+H8، عبدالله،،،,2,2
484,سوبر ماركت ابو ساهر,ChIJq8y7_dA3UxUReTwZvgjTPPo,35.8261053,43.4821238,0.0,"['convenience_store', 'point_of_interest', 'store', 'food', 'establishment']","RFGJ+CRX, Makhmur",2,0
485,شركة الشمال إنتاج 3,ChIJ21r3IwFVB0ARHduSVZV31vM,35.8583462,43.7371163,0.0,"['point_of_interest', 'food', 'establishment']",VP5P+9RQ,2,0
486,بيت الحسين العبدالله,ChIJ1dK3fGZFUxURYP-1FZWG4sY,35.7749539,43.5810196,0.0,"['point_of_interest', 'store', 'food', 'establishment']","QHFJ+XCJ, Makhmur",2,0
487,Jalal Cafe,ChIJXyyzY_tFUxUR7c5noMnIdpg,35.775177,43.5774996,5.0,"['cafe', 'point_of_interest', 'food', 'establishment']","QHGH+333, مخمور، اربيل،، مخمور،،, Makhmur",2,2
488,Ibrahim Coffee,ChIJLZsc-BFFUxUROWCGBDfvY70,35.7752108,43.5769636,4.0,"['cafe', 'point_of_interest', 'food', 'establishment']","مزگه‌وتی سپی مه‌خموور،, مخمور،",2,1
489,Qehwa hilaliyan,ChIJ18s95k5FUxURN255D_5AOFo,35.7610334,43.6025014,1.0,"['cafe', 'point_of_interest', 'food', 'establishment']","QJ63+C26, Makhmur",2,1
490,ابو رهوفه كافيه,ChIJPaqv_zFFUxURfap-owG6HAo,35.7749539,43.5810196,0.0,"['cafe', 'point_of_interest', 'food', 'establishment']","QHFJ+XCJ, Makhmur",2,0
491,چایخانەی سیروان,ChIJ-SPji5NFUxUR6Y7HjwlwzoA,35.7733984,43.5778549,5.0,"['cafe', 'point_of_interest', 'food', 'establishment']","QHFH+4C9, Makhmur",2,2
492,ملاقەرە,ChIJg6Z7RSFZB0ARQWFuf9b6qDE,35.9338078,43.66646,5.0,"['cafe', 'point_of_interest', 'store', 'food', 'establishment']",WMM8+GHG، Arbil,2,1
493,خواردنگەی ژیندار,ChIJ4ZUeA2NVB0ARCcE-fwIDpUA,35.8757309,43.80850909999999,5.0,"['restaurant', 'point_of_interest', 'food', 'establishment']","VRG5+79, Dibagah",2,1
494,Diyar kawa,ChIJaZZHu0FPUxURwTmE27dbKzE,35.7826116,43.5792234,5.0,"['restaurant', 'point_of_interest', 'food', 'establishment']",QHMJ+44، مخمور،،,2,1
495,خواردنگەی مەردان(گص مردان),ChIJrWzgPhtFUxUR2RBJJexVzeo,35.7748396,43.5772804,4.0,"['restaurant', 'point_of_interest', 'food', 'establishment']","مزگه‌وتی سپی مه‌خموور،, مخمور،",2,25
